,UNITID,OPEID,OPEID6,INSTNM,CITY,STABBR,ZIP,PREDDEG,HIGHDEG,LATITUDE,LONGITUDE,HBCU,PBI,ANNHI,TRIBAL,AANAPII,HSI,NANTI,MENONLY,WOMENONLY,RELAFFIL,ADM_RATE,SATVR25,SATVR75,SATMT25,SATMT75,SATWR25,SATWR75,SATVRMID,SATMTMID,SATWRMID,SAT_AVG,UG,UGDS_WHITE,UGDS_BLACK,UGDS_HISP,UGDS_ASIAN,UGDS_AIAN,UGDS_NHPI,CURROPER,COSTT4_A,COSTT4_P,TUITIONFEE_IN,TUITIONFEE_OUT,AVGFACSAL,C150_4,C150_L4,C150_4_WHITE,C150_4_BLACK,C150_4_HISP,C150_4_ASIAN,C150_4_AIAN,C150_4_NHPI,RET_FTL4,RET_PT4,PCTFLOAN,FEMALE_DEBT_MDN,MALE_DEBT_MDN,FIRSTGEN_DEBT_MDN,NOTFIRSTGEN_DEBT_MDN,AGE_ENTRY,FIRST_GEN,FAMINC,MD_FAMINC,GRADS,PRGMOFR,CIPCODE1,ENDOWBEGIN,ENDOWEND,MDEARN_ALL
0,100654,100200,1002,Alabama A & M University,Normal,AL,35762,3,4,34.783368,-86.568502,1.0,0.0,0.0,0.0,0.0,0.0,0.0,0.0,0.0,,0.8965,430.0,520.0,410.0,500.0,,,475.0,455.0,,959.0,,0.0159,0.9022,0.0116,0.0012,0.0028,0.0008,1,23445.0,,10024.0,18634.0,7599.0,0.2866,,0.3182,0.2815,0.5,1.0,1.0,0.75,,0.3333,0.7504,,,,,,,,,884.0,,,,,36819
1,100663,105200,1052,University of Alabama at Birmingham,Birmingham,AL,35294-0110,3,4,33.505697,-86.799345,0.0,0.0,0.0,0.0,0.0,0.0,0.0,0.0,0.0,,0.806,560.0,668.0,530.0,660.0,,,614.0,595.0,,1245.0,,0.5496,0.2401,0.061,0.0704,0.0024,0.0004,1,25542.0,,8568.0,20400.0,11380.0,0.6117,,0.6056,0.5924,0.7143,0.7405,0.6667,,,0.4762,0.4688,,,,,,,,,8685.0,,,537349307.0,539858544.0,36819
2,100690,2503400,25034,Amridge University,Montgomery,AL,36117-3553,2,4,32.362609,-86.17401,0.0,0.0,0.0,0.0,0.0,0.0,0.0,0.0,0.0,74.0,,,,,,,,,,,,,0.255,0.6913,0.0268,0.0034,0.0,0.0,1,20100.0,,6950.0,6950.0,4545.0,0.25,,0.5,0.0,,,,,,,0.8493,,,,,,,,,477.0,,,174805.0,174818.0,36819
3,100706,105500,1055,University of Alabama in Huntsville,Huntsville,AL,35899,3,4,34.724557,-86.640449,0.0,0.0,0.0,0.0,0.0,0.0,0.0,0.0,0.0,,0.7711,590.0,700.0,580.0,730.0,,,645.0,655.0,,1300.0,,0.7173,0.0907,0.0599,0.0354,0.0083,0.001,1,24861.0,,11338.0,23734.0,9697.0,0.5714,,0.5838,0.4783,0.5313,0.44,0.75,,,0.25,0.3855,,,,,,,,,1972.0,,,77250279.0,75837207.0,36819
4,100724,100500,1005,Alabama State University,Montgomery,AL,36104-0271,3,4,32.364317,-86.295677,1.0,0.0,0.0,0.0,0.0,0.0,0.0,0.0,0.0,,0.9888,438.0,531.0,406.0,518.0,,,485.0,462.0,,938.0,,0.0167,0.9265,0.013,0.0019,0.0017,0.0017,1,21892.0,,11068.0,19396.0,7194.0,0.3177,,0.3333,0.3219,0.2857,0.0,0.0,1.0,,0.0526,0.7805,,,,,,,,,458.0,,,94536751.0,111315175.0,36819
5,100751,105100,1051,The University of Alabama,Tuscaloosa,AL,35487-0100,3,4,33.211875,-87.545978,0.0,0.0,0.0,0.0,0.0,0.0,0.0,0.0,0.0,,0.8039,540.0,660.0,530.0,670.0,,,600.0,600.0,,1262.0,,0.7695,0.1024,0.0512,0.0131,0.0033,0.0008,1,30016.0,,11620.0,31090.0,10349.0,0.7214,,0.7396,0.6158,0.6667,0.7231,0.5238,0.75,,0.5667,0.3644,,,,,,,,,6170.0,,,946690144.0,939393269.0,36819
6,100760,100700,1007,Central Alabama Community College,Alexander City,AL,35010,1,2,32.92478,-85.945266,0.0,0.0,0.0,0.0,0.0,0.0,0.0,0.0,0.0,,,,,,,,,,,,,,0.7284,0.1932,0.0141,0.006,0.002,0.002,1,9437.0,,4930.0,8860.0,6581.0,,0.192,,,,,,,0.5915,,0.129,,,,,,,,,,,,431560.0,433325.0,36819
7,100812,100800,1008,Athens State University,Athens,AL,35611,3,4,34.806793,-86.964698,0.0,0.0,0.0,0.0,0.0,0.0,0.0,0.0,0.0,,,,,,,,,,,,,,0.7596,0.1305,0.0369,0.0065,0.0126,0.0011,1,,,,,8683.0,,,,,,,,,,,0.4928,,,,,,,,,179.0,,,4271684.0,4496491.0,36819
8,100830,831000,8310,Auburn University at Montgomery,Montgomery,AL,36117-3596,3,4,32.36736,-86.177544,0.0,1.0,0.0,0.0,0.0,0.0,0.0,0.0,0.0,,0.9555,480.0,575.0,430.0,515.0,,,528.0,473.0,,1061.0,,0.4213,0.4473,0.0114,0.0242,0.0044,0.0007,1,20225.0,,8860.0,18820.0,7729.0,0.304,,0.3425,0.2389,1.0,0.4,0.1667,0.0,,0.3333,0.5355,,,,,,,,,837.0,,,51120949.0,52113787.0,36819
9,100858,100900,1009,Auburn University,Auburn,AL,36849,3,4,32.599378,-85.488258,0.0,0.0,0.0,0.0,0.0,0.0,0.0,0.0,0.0,,0.8507,590.0,650.0,570.0,670.0,,,620.0,620.0,,1302.0,,0.8101,0.0465,0.0355,0.0238,0.003,0.0006,1,32196.0,,11796.0,31956.0,10722.0,0.787,,0.7999,0.6933,0.697,0.7823,0.7931,,,0.7556,0.298,,,,,,,,,6232.0,,,774534709.0,784621493.0,36819
10,100937,101200,1012,Birmingham-Southern College,Birmingham,AL,35254,3,3,33.513774,-86.850552,0.0,0.0,0.0,0.0,0.0,0.0,0.0,0.0,0.0,71.0,0.6045,520.0,610.0,500.0,580.0,,,565.0,540.0,,1202.0,,0.7653,0.1435,0.0452,0.0204,0.0035,0.0,1,32514.0,,18900.0,18900.0,6961.0,0.7094,,0.7132,0.525,1.0,0.8621,0.8,,,,0.4615,,,,,,,,,,,,53117638.0,49403369.0,36819
11,101028,1218200,12182,Chattahoochee Valley Community College,Phenix City,AL,36869,2,2,32.42391,-85.031485,0.0,0.0,0.0,0.0,0.0,0.0,0.0,0.0,0.0,,,,,,,,,,,,,,0.4049,0.4057,0.0617,0.0101,0.0008,0.0,1,10275.0,,4920.0,8910.0,6432.0,,0.2246,,,,,,,0.5538,,0.1715,,,,,,,,,,,,101883.0,49698.0,36819
12,101116,1303906,13039,South University-Montgomery,Montgomery,AL,36116,3,4,32.342684,-86.216488,0.0,0.0,0.0,0.0,0.0,0.0,0.0,0.0,0.0,,,,,,,,,,,,,,0.3114,0.6505,0.0173,0.0,0.0,0.0035,1,28761.0,,17014.0,17014.0,4930.0,0.1429,,0.0,0.1765,,,0.0,,,1.0,0.6773,,,,,,,,,60.0,,,,,36819
13,101143,101500,1015,Enterprise State Community College,Enterprise,AL,36330-1300,2,2,31.297496,-85.836956,0.0,0.0,0.0,0.0,0.0,0.0,0.0,0.0,0.0,,,,,,,,,,,,,,0.5966,0.2124,0.0713,0.0054,0.0077,0.0023,1,9561.0,,4960.0,8950.0,6662.0,,0.2582,,,,,,,0.5961,,0.133,,,,,,,,,,,,1058057.0,17187.0,36819
14,101161,106000,1060,Coastal Alabama Community College,Bay Minette,AL,36507-2698,2,2,30.851343,-87.778193,0.0,0.0,0.0,0.0,0.0,0.0,0.0,0.0,0.0,,,,,,,,,,,,,,0.6506,0.2118,0.0361,0.0118,0.0154,0.0002,1,14915.0,,4860.0,8850.0,7023.0,,0.1887,,,,,,,0.5449,,0.2086,,,,,,,,,,,,,,36819
15,101189,100300,1003,Faulkner University,Montgomery,AL,36109-3390,3,4,32.384181,-86.21641,0.0,0.0,0.0,0.0,0.0,0.0,0.0,0.0,0.0,74.0,0.7576,515.0,590.0,505.0,585.0,,,553.0,545.0,,1068.0,,0.4564,0.4215,0.03,0.0076,0.0071,0.0044,1,34835.0,,22990.0,22990.0,5926.0,0.2711,,0.3239,0.2114,0.2143,0.0,0.0,,,0.3333,0.6384,,,,,,,,,863.0,,,18492390.0,17838794.0,36819
16,101240,101700,1017,Gadsden State Community College,Gadsden,AL,35903,2,2,33.994001,-85.991438,1.0,0.0,0.0,0.0,0.0,0.0,0.0,0.0,0.0,,,,,,,,,,,,,,0.6957,0.1808,0.0549,0.0037,0.0029,0.0009,1,10527.0,,3936.0,7128.0,6720.0,,0.2736,,,,,,,0.5357,,0.0,,,,,,,,,,,,3413448.0,3610956.0,36819
17,101277,4187200,41872,New Beginning College of Cosmetology,Albertville,AL,35951,1,1,34.27871,-86.196931,0.0,0.0,0.0,0.0,0.0,0.0,0.0,0.0,0.0,,,,,,,,,,,,,,0.8953,0.0116,0.093,0.0,0.0,0.0,1,,16173.0,,,,,0.8261,,,,,,,0.7755,,0.811,,,,,,,,,,2.0,12.0401,,,36819
18,101286,101800,1018,George C Wallace Community College-Dothan,Dothan,AL,36303-9234,1,2,31.315274,-85.465836,0.0,0.0,0.0,0.0,0.0,0.0,0.0,0.0,0.0,,,,,,,,,,,,,,0.5831,0.2959,0.0458,0.01,0.003,0.0003,1,9990.0,,4800.0,8790.0,6455.0,,0.2884,,,,,,,0.551,,0.0,,,,,,,,,,,,160344.0,167860.0,36819
19,101295,787100,7871,George C Wallace State Community College-Hanceville,Hanceville,AL,35077-2000,1,2,34.072439,-86.781935,0.0,0.0,0.0,0.0,0.0,0.0,0.0,0.0,0.0,,,,,,,,,,,,,,0.8012,0.0674,0.0712,0.0145,0.0071,0.0012,1,12537.0,,4860.0,8850.0,7772.0,,0.4516,,,,,,,0.6401,,0.269,,,,,,,,,,,,,,36819
20,101301,569900,5699,George C Wallace State Community College-Selma,Selma,AL,36702-2808,2,2,32.445917,-87.013294,0.0,1.0,0.0,0.0,0.0,0.0,0.0,0.0,0.0,,,,,,,,,,,,,,0.1845,0.7729,0.0076,0.0022,0.0011,0.0,1,11154.0,,4560.0,8550.0,6294.0,,0.3383,,,,,,,0.5744,,0.0,,,,,,,,,,,,,,36819
21,101365,962107,9621,Herzing University-Birmingham,Birmingham,AL,35209,2,4,33.468466,-86.832465,0.0,0.0,0.0,0.0,0.0,0.0,0.0,0.0,0.0,,0.9153,,,,,,,,,,,,0.2761,0.6373,0.0294,0.0082,0.0016,0.0033,1,30319.0,,14200.0,14200.0,6304.0,0.2222,,0.3333,0.2353,0.0,,,,,,0.7741,,,,,,,,,7.0,,,,,36819
22,101435,101900,1019,Huntingdon College,Montgomery,AL,36106-2148,3,3,32.351034,-86.284366,0.0,0.0,0.0,0.0,0.0,0.0,0.0,0.0,0.0,71.0,0.5439,503.0,590.0,500.0,568.0,,,547.0,534.0,,1101.0,,0.6696,0.1832,0.0654,0.0087,0.0087,0.0,1,37483.0,,27900.0,27900.0,6886.0,0.4185,,0.4024,0.5714,0.5714,0.0,0.0,,,,0.7252,,,,,,,,,,,,50818280.0,51910937.0,36819
23,101453,2199700,21997,Heritage Christian University,Florence,AL,35630-9977,3,4,34.856153,-87.663051,0.0,0.0,0.0,0.0,0.0,0.0,0.0,0.0,0.0,74.0,0.6667,,,,,,,,,,,,0.9,0.0429,0.0286,0.0,0.0,0.0,1,,,11532.0,11532.0,5914.0,0.1429,,0.1429,,,,,,,,0.1017,,,,,,,,,40.0,,,11825721.0,12502663.0,36819
24,101462,526000,5260,J. F. Drake State Community and Technical College,Huntsville,AL,35811,1,2,34.771858,-86.572885,1.0,0.0,0.0,0.0,0.0,0.0,0.0,0.0,0.0,,,,,,,,,,,,,,0.263,0.6013,0.0419,0.0084,0.0067,0.0,1,12015.0,,4830.0,8820.0,5892.0,,0.0667,,,,,,,0.5,,0.0,,,,,,,,,,,,,,36819
25,101471,3002500,30025,J F Ingram State Technical College,Deatsville,AL,36022,1,1,32.582312,-86.392369,0.0,0.0,0.0,0.0,0.0,0.0,0.0,0.0,0.0,,,,,,,,,,,,,,0.3409,0.6165,0.0075,0.0025,0.0075,0.0,1,6012.0,,5472.0,5472.0,4699.0,,0.2079,,,,,,,0.6534,,0.0,,,,,,,,,,,,,,36819
26,101480,102000,1020,Jacksonville State University,Jacksonville,AL,36265,3,4,33.822938,-85.765321,0.0,0.0,0.0,0.0,0.0,0.0,0.0,0.0,0.0,,0.6369,420.0,530.0,420.0,540.0,,,475.0,480.0,,1084.0,,0.6681,0.22,0.0047,0.0075,0.0041,0.0006,1,21560.0,,11120.0,20840.0,7326.0,0.4551,,0.5106,0.2819,0.2632,0.6,0.3333,1.0,,0.5,0.6696,,,,,,,,,1491.0,,,13645484.0,13976189.0,36819
27,101505,102200,1022,Jefferson State Community College,Birmingham,AL,35215-3098,2,2,33.652535,-86.707233,0.0,0.0,0.0,0.0,0.0,0.0,0.0,0.0,0.0,,,,,,,,,,,,,,0.6179,0.2231,0.0681,0.0169,0.0034,0.0,1,14127.0,,5850.0,9840.0,7033.0,,0.1577,,,,,,,0.5922,,0.212,,,,,,,,,,,,1363533.0,1388586.0,36819
28,101514,101300,1013,John C Calhoun State Community College,Tanner,AL,35671,1,2,34.645844,-86.949674,0.0,0.0,0.0,0.0,0.0,0.0,0.0,0.0,0.0,,,,,,,,,,,,,,0.6446,0.154,0.0752,0.0209,0.014,0.0015,1,11128.0,,4940.0,8930.0,6896.0,,0.2854,,,,,,,0.6145,,0.1991,,,,,,,,,,,,4468744.0,7643394.0,36819
29,101541,102300,1023,Judson College,Marion,AL,36756,3,3,32.629253,-87.315206,0.0,0.0,0.0,0.0,0.0,0.0,0.0,0.0,1.0,54.0,0.5648,440.0,580.0,530.0,770.0,,,510.0,650.0,,1068.0,,0.7626,0.1872,0.0091,0.0046,0.0228,0.0,0,32380.0,,18640.0,18640.0,5432.0,0.4756,,0.4789,0.6667,,0.0,,,,,0.724,,,,,,,,,,,,15479806.0,14047540.0,36819
30,101569,105900,1059,Lawson State Community College,Birmingham,AL,35221-1717,2,2,33.450814,-86.888844,1.0,0.0,0.0,0.0,0.0,0.0,0.0,0.0,0.0,,,,,,,,,,,,,,0.1371,0.7906,0.0302,0.0038,0.0019,0.0004,1,14811.0,,4860.0,8850.0,6774.0,,0.2126,,,,,,,0.5112,,0.0,,,,,,,,,,,,586100.0,586222.0,36819
31,101587,102400,1024,University of West Alabama,Livingston,AL,35470,3,4,32.588132,-88.186329,0.0,1.0,0.0,0.0,0.0,0.0,0.0,0.0,0.0,,0.9313,,,,,,,,,,1035.0,,0.4384,0.4072,0.0218,0.0027,0.0098,0.0009,1,22645.0,,10990.0,20090.0,6551.0,0.4011,,0.467,0.3333,0.3333,1.0,,,,1.0,0.6735,,,,,,,,,3486.0,,,426506.0,428958.0,36819
32,101602,898800,8988,Lurleen B Wallace Community College,Andalusia,AL,36420-1224,2,2,31.322947,-86.452262,0.0,0.0,0.0,0.0,0.0,0.0,0.0,0.0,0.0,,,,,,,,,,,,,,0.6494,0.2294,0.0241,0.0037,0.0065,0.0009,1,13532.0,,4860.0,8850.0,6465.0,,0.3325,,,,,,,0.6566,,0.0,,,,,,,,,,,,,,36819
33,101648,102600,1026,Marion Military Institute,Marion,AL,36756-3207,2,2,32.623734,-87.322041,0.0,0.0,0.0,0.0,0.0,0.0,0.0,0.0,0.0,,0.575,560.0,650.0,540.0,650.0,,,605.0,595.0,,1147.0,,0.6525,0.21,0.0175,0.05,0.015,0.0025,1,18568.0,,9418.0,15418.0,6449.0,,0.4073,,,,,,,0.3396,,0.4548,,,,,,,,,,,,3524669.0,3592219.0,36819
34,101675,102800,1028,Miles College,Fairfield,AL,35064-2621,3,3,33.482442,-86.908751,1.0,0.0,0.0,0.0,0.0,0.0,0.0,0.0,0.0,55.0,,,,,,,,,,,,,0.0348,0.9332,0.0118,0.0,0.0007,0.0,1,22684.0,,12714.0,12714.0,4971.0,0.2351,,0.1667,0.2382,0.0,,,,,0.2857,0.8915,,,,,,,,,,,,23273985.0,24402543.0,36819
35,101693,102900,1029,University of Mobile,Mobile,AL,36613-2842,3,4,30.793247,-88.128934,0.0,0.0,0.0,0.0,0.0,0.0,0.0,0.0,0.0,75.0,0.6657,,,,,,,,,,,,0.6572,0.1718,0.0077,0.018,0.0241,0.0052,1,36890.0,,24310.0,24310.0,5265.0,0.489,,0.5301,0.2051,0.75,,0.25,,,,0.4692,,,,,,,,,266.0,,,17303532.0,17265742.0,36819
36,101709,100400,1004,University of Montevallo,Montevallo,AL,35115-6000,3,4,33.10625,-86.865099,0.0,0.0,0.0,0.0,0.0,0.0,0.0,0.0,0.0,,0.6052,500.0,600.0,490.0,615.0,,,550.0,553.0,,1131.0,,0.6706,0.1683,0.0572,0.0082,0.0037,0.0027,1,26018.0,,13710.0,26730.0,7623.0,0.5415,,0.534,0.5781,0.7037,0.8333,,,,0.1818,0.5537,,,,,,,,,372.0,,,22455731.0,24840444.0,36819
37,101736,569700,5697,Northwest-Shoals Community College,Muscle Shoals,AL,35661,1,2,34.739788,-87.678089,0.0,0.0,0.0,0.0,0.0,0.0,0.0,0.0,0.0,,,,,,,,,,,,,,0.7307,0.1137,0.0827,0.0082,0.0069,0.0004,1,13107.0,,4831.0,8821.0,6506.0,,0.2452,,,,,,,0.5688,,0.2241,,,,,,,,,,,,749366.0,759027.0,36819
38,101879,101600,1016,University of North Alabama,Florence,AL,35632-0001,3,4,34.806738,-87.681361,0.0,0.0,0.0,0.0,0.0,0.0,0.0,0.0,0.0,,0.8266,,,,,,,,,,,,0.7418,0.1292,0.0392,0.0155,0.0059,0.0006,1,21502.0,,10620.0,20220.0,8985.0,0.4995,,0.5258,0.379,0.4815,0.0,1.0,,,0.4,0.4564,,,,,,,,,2140.0,,,37227270.0,39458675.0,36819
39,101897,103100,1031,Northeast Alabama Community College,Rainsville,AL,35986,1,2,34.545471,-85.911664,0.0,0.0,0.0,0.0,0.0,0.0,0.0,0.0,0.0,,,,,,,,,,,,,,0.718,0.0219,0.1267,0.0055,0.0158,0.0012,1,9200.0,,4860.0,8850.0,7041.0,,0.4698,,,,,,,0.6313,,0.0926,,,,,,,,,,,,4163.0,4181.0,36819
40,101912,103300,1033,Oakwood University,Huntsville,AL,35896,3,4,34.756344,-86.652705,1.0,0.0,0.0,0.0,0.0,0.0,0.0,0.0,0.0,95.0,0.8881,,,,,,,,,,,,0.0061,0.8348,0.0598,0.003,0.0098,0.0,1,37764.0,,19990.0,19990.0,4705.0,0.5,,0.0,0.4969,0.6,0.0,0.5,,,,0.754,,,,,,,,,35.0,,,19744545.0,20201402.0,36819
41,101994,569200,5692,Reid State Technical College,Evergreen,AL,36401,1,2,31.460265,-86.964797,0.0,0.0,0.0,0.0,0.0,0.0,0.0,0.0,0.0,,,,,,,,,,,,,,0.3726,0.5613,0.0094,0.0,0.0094,0.0,1,9152.0,,4920.0,8910.0,6579.0,,0.2909,,,,,,,0.6949,,0.0,,,,,,,,,,,,,,36819
42,102030,103000,1030,Bishop State Community College,Mobile,AL,36603-5898,1,2,30.693972,-88.056982,1.0,0.0,0.0,0.0,0.0,0.0,0.0,0.0,0.0,,,,,,,,,,,,,,0.2408,0.6253,0.0209,0.0203,0.0043,0.0,1,10492.0,,4860.0,8850.0,6947.0,,0.2056,,,,,,,0.4558,,0.0,,,,,,,,,,,,151679.0,151428.0,36819
43,102049,103600,1036,Samford University,Birmingham,AL,35229-2240,3,4,33.464128,-86.791799,0.0,0.0,0.0,0.0,0.0,0.0,0.0,0.0,0.0,54.0,0.8399,540.0,640.0,520.0,600.0,,,590.0,560.0,,1219.0,,0.8575,0.056,0.0383,0.0104,0.002,0.0,1,49634.0,,34198.0,34198.0,9007.0,0.772,,0.7821,0.5455,0.85,0.6364,1.0,,,0.0,0.308,,,,,,,,,2153.0,,,347137118.0,332869066.0,36819
44,102067,569100,5691,Shelton State Community College,Tuscaloosa,AL,35405-8522,2,2,33.120531,-87.56148,1.0,0.0,0.0,0.0,0.0,0.0,0.0,0.0,0.0,,,,,,,,,,,,,,0.5541,0.3594,0.0296,0.0067,0.0052,0.0003,1,14232.0,,4560.0,8550.0,6587.0,,0.1511,,,,,,,0.5894,,0.0,,,,,,,,,,,,,,36819
45,102076,103800,1038,Snead State Community College,Boaz,AL,35957-0734,2,2,34.201495,-86.169897,0.0,0.0,0.0,0.0,0.0,0.0,0.0,0.0,0.0,,,,,,,,,,,,,,0.6709,0.0779,0.1766,0.0081,0.0054,0.002,1,11531.0,,5344.0,9600.0,8385.0,,0.4954,,,,,,,0.5997,,0.2055,,,,,,,,,,,,2626385.0,2605005.0,36819
46,102094,105700,1057,University of South Alabama,Mobile,AL,36688-0002,3,4,30.696033,-88.178711,0.0,0.0,0.0,0.0,0.0,0.0,0.0,0.0,0.0,,0.7303,503.0,610.0,480.0,580.0,,,557.0,530.0,,1162.0,,0.605,0.2155,0.0437,0.0346,0.0073,0.0013,1,21694.0,,8396.0,16292.0,7507.0,0.4491,,0.4817,0.369,0.4237,0.6769,0.6364,1.0,,0.5294,0.5489,,,,,,,,,5174.0,,,433051000.0,470288000.0,36819
47,102234,104100,1041,Spring Hill College,Mobile,AL,36608-1791,3,4,30.694751,-88.138199,0.0,0.0,0.0,0.0,0.0,0.0,0.0,0.0,0.0,30.0,0.5416,490.0,590.0,510.0,560.0,,,540.0,535.0,,1125.0,,0.6531,0.1437,0.0614,0.0161,0.0066,0.0019,1,55844.0,,41868.0,41868.0,6040.0,0.5691,,0.6133,0.44,0.1333,1.0,0.75,,,0.0,0.806,,,,,,,,,130.0,,,18160532.0,17236188.0,36819
48,102270,104400,1044,Stillman College,Tuscaloosa,AL,35401,3,3,33.200006,-87.585278,1.0,0.0,0.0,0.0,0.0,0.0,0.0,0.0,0.0,66.0,0.5553,,,,,,,,,,,,0.0458,0.9485,0.0057,0.0,0.0,0.0,1,27665.0,,11322.0,11322.0,5300.0,0.2151,,0.25,0.2134,0.0,,0.0,,,1.0,0.7967,,,,,,,,,,,,19060678.0,18932197.0,36819
49,102298,104600,1046,Talladega College,Talladega,AL,35160,3,4,33.433472,-86.112704,1.0,0.0,0.0,0.0,0.0,0.0,0.0,0.0,0.0,76.0,,,,,,,,,,,,,0.0289,0.8993,0.0228,0.0009,0.0035,0.0018,1,24220.0,,13866.0,13866.0,6100.0,0.3014,,0.1,0.3019,0.6,,,,,0.3333,0.8033,,,,,,,,,14.0,,,2592980.0,2561968.0,36819
50,102313,573400,5734,H Councill Trenholm State Community College,Montgomery,AL,36108-3199,2,2,32.350109,-86.343057,1.0,0.0,0.0,0.0,0.0,0.0,0.0,0.0,0.0,,,,,,,,,,,,,,0.2315,0.6854,0.0352,0.0082,0.003,0.0007,1,12505.0,,4770.0,8760.0,6386.0,,0.1834,,,,,,,0.512,,0.0,,,,,,,,,,,,,,36819
51,102368,104700,1047,Troy University,Troy,AL,36082-0001,3,4,31.800672,-85.957094,0.0,0.0,0.0,0.0,0.0,0.0,0.0,0.0,0.0,,0.9243,475.0,565.0,460.0,540.0,,,520.0,500.0,,1094.0,,0.525,0.3196,0.0438,0.0081,0.0033,0.0013,1,21251.0,,8908.0,16708.0,6785.0,0.5017,,0.5698,0.3303,0.4792,0.3333,0.5,0.5,,0.38,0.6439,,,,,,,,,3785.0,,,129191770.0,152060888.0,36819
52,102377,105000,1050,Tuskegee University,Tuskegee,AL,36088-1920,3,4,32.4309,-85.708492,1.0,0.0,0.0,0.0,0.0,0.0,0.0,0.0,0.0,,0.6113,450.0,525.0,410.0,520.0,,,488.0,465.0,,1016.0,,0.0044,0.9053,0.0154,0.0053,0.0022,0.007,1,40750.0,,22614.0,22614.0,7224.0,0.5189,,0.0,0.5199,,0.0,,,,0.8889,0.0764,,,,,,,,,467.0,,,129234701.0,123415957.0,36819
53,102395,2170600,21706,United States Sports Academy,Daphne,AL,36526-7055,3,4,30.639329,-87.91163,0.0,0.0,0.0,0.0,0.0,0.0,0.0,0.0,0.0,,,,,,,,,,,,,,0.5538,0.1846,0.1231,0.0077,0.0,0.0,1,,,,,5745.0,,,,,,,,,,,0.1207,,,,,,,,,201.0,,,1000000.0,1000000.0,36819
54,102429,573300,5733,Bevill State Community College,Jasper,AL,35501,1,2,33.836929,-87.266406,0.0,0.0,0.0,0.0,0.0,0.0,0.0,0.0,0.0,,,,,,,,,,,,,,0.7677,0.1543,0.0287,0.0031,0.0004,0.0,1,14567.0,,5214.0,9470.0,6749.0,,0.3121,,,,,,,0.5863,,0.0,,,,,,,,,,,,152314.0,226601.0,36819
55,102553,1146200,11462,University of Alaska Anchorage,Anchorage,AK,99508,3,4,61.190163,-149.82619,0.0,0.0,0.0,0.0,0.0,0.0,0.0,0.0,0.0,,0.7683,,,,,,,,,,,,0.5074,0.0367,0.0965,0.0855,0.0503,0.0383,1,18946.0,,8622.0,25228.0,9375.0,0.3012,,0.3445,0.2,0.2692,0.3597,0.0833,0.0769,,0.3693,0.1994,,,,,,,,,630.0,,,59446165.0,60842848.0,36819
56,102580,884300,8843,Alaska Bible College,Palmer,AK,99645,3,3,61.598553,-149.111972,0.0,0.0,0.0,0.0,0.0,0.0,0.0,0.0,0.0,88.0,,,,,,,,,,,,,0.8889,0.0278,0.0278,0.0278,0.0278,0.0,1,25250.0,,9700.0,9700.0,,0.625,,0.5714,,1.0,,,,,0.0,0.1,,,,,,,,,,,,46833.0,95833.0,36819
57,102614,106300,1063,University of Alaska Fairbanks,Fairbanks,AK,99775,3,4,64.85756,-147.823146,0.0,0.0,1.0,0.0,0.0,0.0,1.0,0.0,0.0,,0.6701,530.0,640.0,520.0,630.0,,,585.0,575.0,,1138.0,,0.5203,0.0387,0.0838,0.0228,0.1402,0.0101,1,19135.0,,7176.0,21312.0,9658.0,0.387,,0.4635,0.125,0.4286,0.5,0.1948,0.3333,,0.3939,0.2042,,,,,,,,,963.0,,,114579711.0,114179961.0,36819
58,102632,106500,1065,University of Alaska Southeast,Juneau,AK,99801-8697,1,4,58.384846,-134.638255,0.0,0.0,1.0,0.0,0.0,0.0,1.0,0.0,0.0,,0.6352,,,,,,,,,,,,0.5503,0.0038,0.0865,0.031,0.1195,0.0254,1,16310.0,,6960.0,21096.0,8462.0,0.1753,,0.25,0.0,0.2222,0.0,0.0455,0.0,,0.3182,0.1564,,,,,,,,,265.0,,,6836105.0,6773153.0,36819
59,102669,106100,1061,Alaska Pacific University,Anchorage,AK,99508,3,4,61.190968,-149.804168,0.0,0.0,1.0,0.0,0.0,0.0,0.0,0.0,0.0,71.0,0.9065,,,,,,,,,,,,0.3054,0.0235,0.1007,0.0201,0.2651,0.0067,1,34350.0,,20760.0,20760.0,6340.0,0.5556,,0.6667,0.0,0.0,,0.0,,,0.75,0.4955,,,,,,,,,181.0,,,74723616.0,78389954.0,36819
60,102711,3160300,31603,Alaska Vocational Technical Center,Seward,AK,99664-0889,1,1,60.110626,-149.444487,0.0,0.0,0.0,0.0,0.0,0.0,0.0,0.0,0.0,,,,,,,,,,,,,,0.5838,0.0054,0.0324,0.0162,0.0811,0.0054,1,,15827.0,,,,,0.9213,,,,,,,0.8065,,0.0124,,,,,,,,,,10.0,47.0605,,,36819
61,102845,2576900,25769,Charter College,Vancouver,WA,98683-7575,1,3,45.617798,-122.494766,0.0,0.0,0.0,0.0,0.0,0.0,0.0,0.0,0.0,,,,,,,,,,,,,,0.3132,0.0415,0.1972,0.0189,0.083,0.0486,1,31263.0,,18711.0,18711.0,4840.0,0.5169,,0.5897,0.3217,0.5436,0.6364,0.2571,0.4632,,,0.6807,,,,,,,,,,,,,,36819
62,103501,2541000,25410,Alaska Career College,Anchorage,AK,99507-1033,1,2,61.181443,-149.856954,0.0,0.0,0.0,0.0,0.0,0.0,0.0,0.0,0.0,,,,,,,,,,,,,,0.2694,0.1044,0.0995,0.2112,0.1675,0.0316,1,,19344.0,,,4166.0,,0.7938,,,,,,,0.7131,,0.6582,,,,,,,,,,9.0,51.0801,,,36819
63,103741,966403,9664,Empire Beauty School-Tucson,Tucson,AZ,85716,1,1,32.235657,-110.927187,0.0,0.0,0.0,0.0,0.0,0.0,0.0,0.0,0.0,,,,,,,,,,,,,,0.2281,0.0877,0.5789,0.0,0.0351,0.0,1,,20207.0,,,,,0.5789,,,,,,,0.6731,,0.5439,,,,,,,,,,2.0,12.0401,,,36819
64,103893,2100600,21006,Carrington College-Phoenix North,Phoenix,AZ,85051-4063,1,2,33.565758,-112.104601,0.0,0.0,0.0,0.0,0.0,0.0,0.0,0.0,0.0,,,,,,,,,,,,,,0.2688,0.1116,0.4645,0.0385,0.0436,0.0041,1,,26708.0,,,5768.0,,0.6284,,,,,,,0.7182,,0.6441,,,,,,,,,,10.0,51.0801,,,36819
65,103909,2100611,21006,Carrington College-Mesa,Mesa,AZ,85210-5005,1,2,33.39248,-111.853218,0.0,0.0,0.0,0.0,0.0,0.0,0.0,0.0,0.0,,,,,,,,,,,,,,0.3475,0.0814,0.3814,0.0339,0.0763,0.0119,1,,40676.0,,,6349.0,,0.6225,,,,,,,0.5909,,0.6095,,,,,,,,,,10.0,51.3801,,,36819
66,103927,2100607,21006,Carrington College-Tucson,Tucson,AZ,85745-2974,1,2,32.224391,-110.983056,0.0,0.0,0.0,0.0,0.0,0.0,0.0,0.0,0.0,,,,,,,,,,,,,,0.2486,0.0723,0.6098,0.0231,0.0058,0.0029,1,,31337.0,,,6012.0,,0.5597,,,,,,,0.7805,,0.6405,,,,,,,,,,9.0,51.0801,,,36819
67,103954,886400,8864,Arizona Academy of Beauty,Tucson,AZ,85712,1,1,32.237253,-110.872305,0.0,0.0,0.0,0.0,0.0,0.0,0.0,0.0,0.0,,,,,,,,,,,,,,0.3462,0.0769,0.4423,0.0192,0.0192,0.0,1,,16743.0,,,,,0.6,,,,,,,1.0,,0.5714,,,,,,,,,,3.0,12.0401,,,36819
68,103963,2306807,23068,Miller-Motte College-Arizona Automotive Institute,Glendale,AZ,85301-3579,1,1,33.537249,-112.157344,0.0,0.0,0.0,0.0,0.0,0.0,0.0,0.0,0.0,,,,,,,,,,,,,,0.3342,0.1087,0.3533,0.0082,0.1196,0.0054,1,,36106.0,,,,,0.5617,,,,,,,0.4949,,0.4921,,,,,,,,,,4.0,48.0508,,,36819
69,104090,2218800,22188,Brookline College-Phoenix,Phoenix,AZ,85021,1,4,33.566102,-112.112473,0.0,0.0,0.0,0.0,0.0,0.0,0.0,0.0,0.0,,,,,,,,,,,,,,0.2826,0.1423,0.2886,0.0463,0.0721,0.0013,1,,35678.0,,,6508.0,0.5031,,0.4742,0.3488,0.6564,0.7778,0.55,0.5,,,0.4649,,,,,,,,,41.0,24.0,51.3801,,,36819
70,104151,108100,1081,Arizona State University Campus Immersion,Tempe,AZ,85287,3,4,33.417721,-111.934383,0.0,0.0,0.0,0.0,0.0,0.0,0.0,0.0,0.0,,0.8837,550.0,650.0,550.0,670.0,,,600.0,610.0,,1207.0,,0.4694,0.0432,0.2641,0.0802,0.0124,0.0019,1,27056.0,,11338.0,29428.0,11250.0,0.6601,,0.6709,0.5405,0.6049,0.7699,0.3393,0.64,,0.5,0.3477,,,,,,,,,11671.0,,,808499911.0,840572378.0,36819
71,104160,107100,1071,Arizona Western College,Yuma,AZ,85365-8834,1,2,32.689306,-114.495968,0.0,0.0,0.0,0.0,0.0,1.0,0.0,0.0,0.0,,,,,,,,,,,,,,0.1374,0.013,0.7657,0.0068,0.0087,0.0015,1,15171.0,,2840.0,9830.0,7393.0,,0.2396,,,,,,,0.6124,,0.0112,,,,,,,,,,,,3897921.0,3704793.0,36819
72,104179,108300,1083,University of Arizona,Tucson,AZ,85721-0066,3,4,32.232672,-110.950815,0.0,0.0,0.0,0.0,0.0,1.0,0.0,0.0,0.0,,0.8513,550.0,660.0,540.0,690.0,,,605.0,615.0,,1220.0,,0.4884,0.0392,0.2877,0.0514,0.012,0.002,1,27461.0,,12716.0,36743.0,10305.0,0.6489,,0.6704,0.4346,0.6221,0.7607,0.2625,0.5455,,0.6685,0.3328,,,,,,,,,10244.0,,,1030450686.0,976567843.0,36819
73,104346,728300,7283,Central Arizona College,Coolidge,AZ,85128-9030,1,2,32.957092,-111.652501,0.0,0.0,0.0,0.0,0.0,1.0,0.0,0.0,0.0,,,,,,,,,,,,,,0.3897,0.0595,0.3711,0.0193,0.0419,0.003,1,10699.0,,2580.0,5160.0,6832.0,,0.1632,,,,,,,0.5058,,0.072,,,,,,,,,,,,5778391.0,5312165.0,36819
74,104391,2280500,22805,Charles of Italy Beauty College,Lake Havasu City,AZ,86403,1,1,34.477485,-114.332686,0.0,0.0,0.0,0.0,0.0,0.0,0.0,0.0,0.0,,,,,,,,,,,,,,0.5577,0.0192,0.2885,0.0577,0.0577,0.0192,1,,13727.0,,,,,0.6389,,,,,,,0.8393,,0.6582,,,,,,,,,,1.0,12.0401,,,36819
75,104425,107200,1072,Cochise County Community College District,Sierra Vista,AZ,85635-2317,2,2,31.564597,-110.246946,0.0,0.0,0.0,0.0,0.0,1.0,0.0,0.0,0.0,,,,,,,,,,,,,,0.3974,0.0517,0.4552,0.0175,0.0041,0.0041,1,11353.0,,2184.0,6240.0,6309.0,,0.2873,,,,,,,0.6192,,0.0613,,,,,,,,,,,,10069447.0,14254661.0,36819
76,104443,1054208,10542,Empire Beauty School-Chandler,Chandler,AZ,85224,1,1,33.347586,-111.860423,0.0,0.0,0.0,0.0,0.0,0.0,0.0,0.0,0.0,,,,,,,,,,,,,,0.3409,0.2273,0.3182,0.0227,0.0682,0.0,1,,20076.0,,,,,0.5789,,,,,,,0.6842,,0.4706,,,,,,,,,,2.0,12.0401,,,36819
77,104568,1085800,10858,Avalon Institute-Mesa,Mesa,AZ,85210,1,1,33.376583,-111.858305,0.0,0.0,0.0,0.0,0.0,0.0,0.0,0.0,0.0,,,,,,,,,,,,,,0.4294,0.0676,0.3588,0.0118,0.0118,0.0,1,,20567.0,,,,,0.6795,,,,,,,0.9467,,0.5958,,,,,,,,,,4.0,12.0401,,,36819
78,104577,107300,1073,Eastern Arizona College,Thatcher,AZ,85552-0769,1,2,32.843664,-109.76234,0.0,0.0,0.0,0.0,0.0,1.0,0.0,0.0,0.0,,,,,,,,,,,,,,0.6338,0.0164,0.204,0.0065,0.0799,0.0065,1,14462.0,,2700.0,9120.0,7803.0,,0.46,,,,,,,0.7047,,0.0,,,,,,,,,,,,7899526.0,8024464.0,36819
79,104586,147902,1479,Embry-Riddle Aeronautical University-Prescott,Prescott,AZ,86301-3720,3,4,34.616766,-112.449741,0.0,0.0,0.0,0.0,0.0,0.0,0.0,0.0,0.0,,0.6685,570.0,650.0,570.0,670.0,,,610.0,620.0,,1238.0,,0.6168,0.0159,0.1419,0.0581,0.0044,0.0041,1,54536.0,,37864.0,37864.0,9256.0,0.5916,,0.6396,0.375,0.5077,0.6061,0.3333,1.0,,1.0,0.4012,,,,,,,,,43.0,,,48760000.0,51768000.0,36819
80,104665,2533200,25332,The School of Architecture,Paradise Valley,AZ,85253,4,4,33.566649,-111.941953,0.0,0.0,0.0,0.0,0.0,0.0,0.0,0.0,0.0,,,,,,,,,,,,,,,,,,,,1,,,,,3098.0,,,,,,,,,,,,,,,,,,,,10.0,,,781466.0,806448.0,36819
81,104708,107600,1076,Glendale Community College,Glendale,AZ,85302,1,2,33.570226,-112.190735,0.0,0.0,0.0,0.0,0.0,1.0,0.0,0.0,0.0,,,,,,,,,,,,,,0.3905,0.0612,0.4101,0.0434,0.0123,0.0024,1,14471.0,,2070.0,7854.0,9179.0,,0.144,,,,,,,0.5598,,0.0923,,,,,,,,,,,,,,36819
82,104717,107400,1074,Grand Canyon University,Phoenix,AZ,85017,3,4,33.513231,-112.129929,0.0,0.0,0.0,0.0,0.0,0.0,0.0,0.0,0.0,,0.8069,,,,,,,,,,,,0.4754,0.1578,0.2264,0.0319,0.0092,0.0063,1,31376.0,,17800.0,17800.0,6870.0,0.4657,,0.5144,0.3955,0.4357,0.4366,0.4118,0.3913,,0.4189,0.5756,,,,,,,,,39675.0,,,,,36819
83,105145,830300,8303,GateWay Community College,Phoenix,AZ,85034,1,2,33.449686,-111.997077,0.0,0.0,0.0,0.0,0.0,1.0,0.0,0.0,0.0,,,,,,,,,,,,,,0.297,0.1089,0.4702,0.0348,0.0317,0.0013,1,15328.0,,2070.0,7854.0,8515.0,,0.1955,,,,,,,0.5556,,0.136,,,,,,,,,,,,,,36819
84,105154,107700,1077,Mesa Community College,Mesa,AZ,85202,1,2,33.390323,-111.871255,0.0,0.0,0.0,0.0,0.0,1.0,0.0,0.0,0.0,,,,,,,,,,,,,,0.4531,0.0544,0.3241,0.0402,0.033,0.0033,1,15405.0,,2070.0,7854.0,9298.0,,0.1804,,,,,,,0.5617,,0.1064,,,,,,,,,,,,,,36819
85,105206,1186400,11864,Mohave Community College,Kingman,AZ,86409-1238,1,2,35.270996,-114.029838,0.0,0.0,0.0,0.0,0.0,0.0,0.0,0.0,0.0,,,,,,,,,,,,,,0.6349,0.0137,0.2548,0.0174,0.0237,0.0071,1,12325.0,,2112.0,6972.0,6308.0,,0.183,,,,,,,0.5385,,0.0998,,,,,,,,,,,,4208054.0,3840343.0,36819
86,105215,2100500,21005,Universal Technical Institute of Arizona Inc-Motorcycle Mechanics Institute Division,Phoenix,AZ,85027,1,1,33.684428,-112.121336,0.0,0.0,0.0,0.0,0.0,0.0,0.0,0.0,0.0,,,,,,,,,,,,,,0.6337,0.0444,0.1153,0.0089,0.0203,0.0051,1,,23064.0,,,,,0.6468,,,,,,,0.7182,,0.5235,,,,,,,,,,4.0,47.0611,,,36819
87,105297,824600,8246,Dine College,Tsaile,AZ,86556,2,3,36.293328,-109.21684,0.0,0.0,1.0,1.0,0.0,0.0,0.0,0.0,0.0,,,,,,,,,,,,,,0.0063,0.0008,0.0024,0.0,0.9857,0.0,1,13921.0,,1410.0,1410.0,6207.0,0.2021,,,,,,0.2032,,,0.5,0.0,,,,,,,,,,,,7891978.0,8401082.0,36819
88,105330,108200,1082,Northern Arizona University,Flagstaff,AZ,86011-4092,3,4,35.188449,-111.653724,0.0,0.0,0.0,0.0,0.0,1.0,0.0,0.0,0.0,,0.8164,,,,,,,,,,,,0.5484,0.0322,0.2617,0.0211,0.0281,0.0024,1,27969.0,,11896.0,26642.0,8931.0,0.5687,,0.6142,0.3228,0.5196,0.6049,0.3718,0.2857,,0.5457,0.3994,,,,,,,,,4338.0,,,192621000.0,203671000.0,36819
89,105349,1186200,11862,Northland Pioneer College,Holbrook,AZ,86025-0610,1,2,34.93031,-110.142199,0.0,0.0,1.0,0.0,0.0,0.0,1.0,0.0,0.0,,,,,,,,,,,,,,0.4062,0.0018,0.144,0.0071,0.3867,0.0018,1,15589.0,,2428.0,9851.0,6552.0,,0.0857,,,,,,,0.3,,0.0,,,,,,,,,,,,12414.0,12414.0,36819
90,105367,193701,1937,Ottawa University-Phoenix,Phoenix,AZ,85021,3,4,33.572173,-112.113001,0.0,0.0,0.0,0.0,0.0,1.0,0.0,0.0,0.0,52.0,,,,,,,,,,,,,0.5013,0.0491,0.3488,0.0258,0.0181,0.0,1,,,,,6710.0,,,,,,,,,,,0.6846,,,,,,,,,655.0,,,3052086.0,3197091.0,36819
91,105428,107800,1078,Phoenix College,Phoenix,AZ,85013,2,2,33.481361,-112.088293,0.0,0.0,0.0,0.0,0.0,1.0,0.0,0.0,0.0,,,,,,,,,,,,,,0.2246,0.0888,0.5675,0.0297,0.0263,0.0009,1,14974.0,,2070.0,7854.0,8897.0,,0.1498,,,,,,,0.5525,,0.1043,,,,,,,,,,,,,,36819
92,105525,726600,7266,Pima Community College,Tucson,AZ,85709-1275,1,2,32.222125,-110.886659,0.0,0.0,0.0,0.0,0.0,1.0,0.0,0.0,0.0,,,,,,,,,,,,,,0.3548,0.0484,0.4882,0.0276,0.0207,0.0039,1,8856.0,,2250.0,7566.0,7217.0,,0.178,,,,,,,0.5949,,0.1138,,,,,,,,,,,,6083664.0,5549611.0,36819
93,105534,2217100,22171,Pima Medical Institute-Tucson,Tucson,AZ,85712,2,3,32.248067,-110.878783,0.0,0.0,0.0,0.0,0.0,0.0,0.0,0.0,0.0,,,,,,,,,,,,,,0.366,0.0685,0.4046,0.0452,0.0188,0.0046,1,,,,,5437.0,0.6609,,0.6923,0.4545,0.6435,0.5714,0.8333,,,,0.6356,,,,,,,,,,18.0,51.0701,,,36819
94,105543,3678302,36783,Pima Medical Institute-Albuquerque,Albuquerque,NM,87110,1,2,35.104855,-106.59488,0.0,0.0,0.0,0.0,0.0,0.0,0.0,0.0,0.0,,,,,,,,,,,,,,0.1848,0.0281,0.5017,0.0099,0.1667,0.0017,0,,25743.0,,,5034.0,,0.6619,,,,,,,0.75,,0.619,,,,,,,,,,11.0,51.0801,,,36819
95,105589,2065300,20653,Prescott College,Prescott,AZ,86301,3,4,34.5452,-112.477185,0.0,0.0,0.0,0.0,0.0,0.0,0.0,0.0,0.0,,0.9842,555.0,680.0,540.0,610.0,,,618.0,575.0,,1141.0,,0.6852,0.0097,0.0339,0.0145,0.0169,0.0048,1,43649.0,,33669.0,33669.0,5423.0,0.4878,,0.5333,0.0,0.6667,,,,,,0.5369,,,,,,,,,548.0,,,2200891.0,2243628.0,36819
96,105659,1168900,11689,Refrigeration School Inc,Phoenix,AZ,85034-1816,1,2,33.448692,-111.989357,0.0,0.0,0.0,0.0,0.0,0.0,0.0,0.0,0.0,,,,,,,,,,,,,,0.379,0.0881,0.3122,0.0111,0.1271,0.0056,1,,27225.0,,,4390.0,,0.7136,,,,,,,0.777,,0.7233,,,,,,,,,,6.0,15.0403,,,36819
97,105668,2177500,21775,Rio Salado College,Tempe,AZ,85281,1,2,33.413309,-111.97417,0.0,0.0,0.0,0.0,0.0,1.0,0.0,0.0,0.0,,,,,,,,,,,,,,0.4835,0.0973,0.2956,0.0239,0.0188,0.0019,1,13516.0,,2070.0,7854.0,6676.0,,0.039,,,,,,,0.3977,,0.0686,,,,,,,,,,,,,,36819
98,105677,2113800,21138,Roberto-Venn School of Luthiery,Phoenix,AZ,85007,1,1,33.45489,-112.086161,0.0,0.0,0.0,0.0,0.0,0.0,0.0,0.0,0.0,,,,,,,,,,,,,,1.0,0.0,0.0,0.0,0.0,0.0,1,,24900.0,,,,,0.8667,,,,,,,,,0.3696,,,,,,,,,,1.0,47.0404,,,36819
99,105747,830400,8304,Scottsdale Community College,Scottsdale,AZ,85256,2,2,33.51135,-111.885186,0.0,0.0,0.0,0.0,0.0,0.0,0.0,0.0,0.0,,,,,,,,,,,,,,0.5502,0.0447,0.2465,0.0286,0.0397,0.0023,1,15681.0,,2070.0,7854.0,9330.0,,0.1715,,,,,,,0.6375,,0.0788,,,,,,,,,,,,,,36819
100,105792,2146600,21466,South Mountain Community College,Phoenix,AZ,85042,2,2,33.382406,-112.032635,0.0,0.0,0.0,0.0,0.0,1.0,0.0,0.0,0.0,,,,,,,,,,,,,,0.152,0.16,0.5802,0.0233,0.0281,0.0012,1,14737.0,,2070.0,7854.0,9139.0,,0.1914,,,,,,,0.5055,,0.0923,,,,,,,,,,,,,,36819
101,105899,711300,7113,Arizona Christian University,Glendale,AZ,85306-3216,3,3,33.622952,-112.181776,0.0,0.0,0.0,0.0,0.0,0.0,0.0,0.0,0.0,88.0,0.7147,476.0,570.0,460.0,550.0,,,523.0,505.0,,1031.0,,0.4428,0.1314,0.2763,0.0147,0.0136,0.0034,1,44585.0,,29250.0,29250.0,5102.0,0.4379,,0.5495,0.1429,0.3226,0.5,,0.0,,1.0,0.6383,,,,,,,,,,,,999388.0,251427.0,36819
102,106041,822100,8221,Universal Technical Institute of Arizona Inc,Avondale,AZ,85323,2,2,33.453005,-112.288123,0.0,0.0,0.0,0.0,0.0,0.0,0.0,0.0,0.0,,,,,,,,,,,,,,0.3068,0.0233,0.2136,0.0152,0.0423,0.0184,1,,28609.0,,,5289.0,,0.6682,,,,,,,0.7158,,0.6355,,,,,,,,,,12.0,47.0604,,,36819
103,106111,945915,9459,Empire Beauty School-NW Phoenix,Phoenix,AZ,85051,1,1,33.538093,-112.118168,0.0,0.0,0.0,0.0,0.0,0.0,0.0,0.0,0.0,,,,,,,,,,,,,,0.0,0.0984,0.1148,0.0,0.0164,0.0,0,,20015.0,,,,,0.3256,,,,,,,0.5625,,0.4435,,,,,,,,,,3.0,12.0401,,,36819
104,106148,107900,1079,Yavapai College,Prescott,AZ,86301,1,2,34.547495,-112.453395,0.0,0.0,0.0,0.0,0.0,0.0,0.0,0.0,0.0,,,,,,,,,,,,,,0.5842,0.0121,0.1956,0.0086,0.021,0.0035,1,11934.0,,2600.0,9332.0,7513.0,,0.3169,,,,,,,0.6206,,0.0642,,,,,,,,,,,,14290075.0,14934669.0,36819
105,106245,110100,1101,University of Arkansas at Little Rock,Little Rock,AR,72204,3,4,34.723254,-92.339778,0.0,0.0,0.0,0.0,0.0,0.0,0.0,0.0,0.0,,0.5604,470.0,610.0,500.0,580.0,,,540.0,540.0,,1098.0,,0.4845,0.2705,0.0367,0.0212,0.0059,0.0,1,20416.0,,8366.0,18957.0,9822.0,0.4169,,0.4534,0.3299,0.4194,0.6875,0.5,,,0.7619,0.4312,,,,,,,,,2331.0,,,111153423.0,137934462.0,36819
106,106263,110900,1109,University of Arkansas for Medical Sciences,Little Rock,AR,72205-7199,3,4,34.749048,-92.320046,0.0,0.0,0.0,0.0,0.0,0.0,0.0,0.0,0.0,,,,,,,,,,,,,,0.6671,0.1146,0.0919,0.0465,0.0024,0.0024,1,,,,,10144.0,,,,,,,,,,,0.5751,,,,,,,,,2048.0,,,60485000.0,334680000.0,36819
107,106306,108700,1087,Arkansas Baptist College,Little Rock,AR,72202-6068,2,3,34.734751,-92.290555,1.0,0.0,0.0,0.0,0.0,0.0,0.0,0.0,0.0,54.0,,,,,,,,,,,,,0.1838,0.6368,0.0577,0.0021,0.0,0.0363,1,22405.0,,8760.0,8760.0,4303.0,0.1246,,0.2667,0.1164,0.25,0.0,,,,0.375,0.7032,,,,,,,,,,,,,,36819
108,106315,3005100,30051,Arkansas Beauty School-Little Rock,Little Rock,AR,72209,1,1,34.672171,-92.343366,0.0,0.0,0.0,0.0,0.0,0.0,0.0,0.0,0.0,,,,,,,,,,,,,,0.0,0.8,0.0667,0.0,0.0,0.1333,1,,27191.0,,,,,0.0,,,,,,,0.6667,,0.5681,,,,,,,,,,4.0,12.0401,,,36819
109,106324,3997300,39973,Arkansas Beauty College,Russellville,AR,72801,1,1,35.27902,-93.135369,0.0,0.0,0.0,0.0,0.0,0.0,0.0,0.0,0.0,,,,,,,,,,,,,,0.8421,0.0263,0.0789,0.0263,0.0,0.0,1,,14167.0,,,,,0.6364,,,,,,,0.8667,,0.5143,,,,,,,,,,3.0,12.0401,,,36819
110,106342,108800,1088,Lyon College,Batesville,AR,72501,3,3,35.777619,-91.625354,0.0,0.0,0.0,0.0,0.0,0.0,0.0,0.0,0.0,66.0,0.5015,505.0,580.0,510.0,585.0,,,543.0,548.0,,1198.0,,0.5624,0.0752,0.0857,0.018,0.009,0.0045,1,41396.0,,29415.0,29415.0,6548.0,0.4252,,0.4474,0.4286,0.25,1.0,0.3333,,,,0.6435,,,,,,,,,,,,60939637.0,97668919.0,36819
111,106351,3023400,30234,Arkansas Technical School,North Little Rock,AR,72114,1,1,34.753843,-92.266429,0.0,0.0,0.0,0.0,0.0,0.0,0.0,0.0,0.0,,,,,,,,,,,,,,0.0714,0.9048,0.0119,0.0,0.0,0.0119,1,,26762.0,,,,,0.0,,,,,,,0.6,,0.8817,,,,,,,,,,2.0,12.0402,,,36819
112,106360,2363502,23635,Arthur's Beauty College,Fort Smith,AR,72901-3342,1,1,35.379955,-94.410967,0.0,0.0,0.0,0.0,0.0,0.0,0.0,0.0,0.0,,,,,,,,,,,,,,0.8621,0.069,0.069,0.0,0.0,0.0,1,,13437.0,,,,,0.52,,,,,,,0.7143,,0.5909,,,,,,,,,,2.0,12.0401,,,36819
113,106397,110800,1108,University of Arkansas,Fayetteville,AR,72701,3,4,36.070009,-94.176981,0.0,0.0,0.0,0.0,0.0,0.0,0.0,0.0,0.0,,0.7767,550.0,640.0,540.0,640.0,,,595.0,590.0,,1236.0,,0.7454,0.0417,0.0995,0.0271,0.0073,0.0012,1,23997.0,,9384.0,25872.0,9951.0,0.685,,0.704,0.5591,0.6594,0.75,0.4035,0.4286,,0.5641,0.3602,,,,,,,,,4737.0,,,1221935032.0,1209277289.0,36819
114,106412,108600,1086,University of Arkansas at Pine Bluff,Pine Bluff,AR,71601,3,4,34.244031,-92.018683,1.0,0.0,0.0,0.0,0.0,0.0,0.0,0.0,0.0,,0.5966,400.0,500.0,400.0,500.0,,,450.0,450.0,,900.0,,0.0316,0.9029,0.0217,0.0033,0.0049,0.0008,1,19541.0,,8248.0,14908.0,5885.0,0.3892,,0.4,0.3906,0.25,1.0,,,,0.2857,0.6843,,,,,,,,,161.0,,,3809754.0,7488701.0,36819
115,106449,109100,1091,Arkansas State University-Beebe,Beebe,AR,72012-1000,2,2,35.074176,-91.895351,0.0,0.0,0.0,0.0,0.0,0.0,0.0,0.0,0.0,,,,,,,,,,,,,,0.8245,0.0693,0.051,0.0112,0.0028,0.0019,1,14710.0,,2928.0,4656.0,5089.0,,0.417,,,,,,,0.6256,,0.1486,,,,,,,,,,,,768658.0,758354.0,36819
116,106458,109000,1090,Arkansas State University,Jonesboro,AR,72401,3,4,35.842388,-90.679988,0.0,0.0,0.0,0.0,0.0,0.0,0.0,0.0,0.0,,0.6719,500.0,590.0,500.0,630.0,,,545.0,565.0,,1149.0,,0.7308,0.1353,0.0438,0.0083,0.0032,0.0004,1,23009.0,,7315.0,12883.0,7240.0,0.5301,,0.5638,0.3862,0.375,0.6667,0.3636,0.5,,0.3333,0.4877,,,,,,,,,4620.0,,,80690954.0,82311424.0,36819
117,106467,108900,1089,Arkansas Tech University,Russellville,AR,72801-2222,3,4,35.293237,-93.13562,0.0,0.0,0.0,0.0,0.0,0.0,0.0,0.0,0.0,,0.9766,,,,,,,,,,,,0.7431,0.0729,0.0855,0.0158,0.007,0.0009,1,19361.0,,7668.0,13236.0,6829.0,0.4422,,0.4914,0.2076,0.4234,0.2727,0.5455,,,0.381,0.3532,,,,,,,,,719.0,,,43641143.0,49075714.0,36819
118,106485,108500,1085,University of Arkansas at Monticello,Monticello,AR,71656,1,4,33.590909,-91.811153,0.0,0.0,0.0,0.0,0.0,0.0,0.0,0.0,0.0,,,,,,,,,,,,,,0.5425,0.2964,0.0693,0.0039,0.0024,0.0,1,18822.0,,7909.0,13759.0,5759.0,0.3561,,0.4587,0.1683,0.6,0.3333,,,,0.6,0.4635,,,,,,,,,293.0,,,3782431.0,3728045.0,36819
119,106494,2538503,25385,Arthur's Beauty College,Jacksonville,AR,72076,1,1,34.891572,-92.102579,0.0,0.0,0.0,0.0,0.0,0.0,0.0,0.0,0.0,,,,,,,,,,,,,,0.4737,0.2456,0.0175,0.0,0.0,0.0,1,,14803.0,,,,,0.4545,,,,,,,0.4167,,0.7407,,,,,,,,,,2.0,12.0401,,,36819
120,106546,3105200,31052,Baptist Health College Little Rock,Little Rock,AR,72210-2827,2,2,34.713115,-92.40692,0.0,0.0,0.0,0.0,0.0,0.0,0.0,0.0,0.0,54.0,0.5,,,,,,,,,,1050.0,,0.6172,0.2723,0.053,0.0166,0.0015,0.0,1,24470.0,,11750.0,11750.0,6840.0,,0.8571,,,,,,,0.75,,0.7955,,,,,,,,,,,,8085582.0,8304161.0,36819
121,106625,2052200,20522,Black River Technical College,Pocahontas,AR,72455,2,2,36.239793,-90.951033,0.0,0.0,0.0,0.0,0.0,0.0,0.0,0.0,0.0,,,,,,,,,,,,,,0.8905,0.029,0.0344,0.0018,0.0,0.0018,1,12970.0,,4118.0,6350.0,4953.0,,0.2977,,,,,,,0.483,,0.1909,,,,,,,,,,,,125095.0,133095.0,36819
122,106704,109200,1092,University of Central Arkansas,Conway,AR,72035-0001,3,4,35.077945,-92.457672,0.0,0.0,0.0,0.0,0.0,0.0,0.0,0.0,0.0,,0.9378,480.0,580.0,470.0,570.0,,,530.0,520.0,,1166.0,,0.6663,0.1644,0.0608,0.0215,0.005,0.0007,1,23185.0,,9338.0,16148.0,7166.0,0.4573,,0.5128,0.2602,0.4248,0.6364,0.2857,0.5,,0.5,0.4562,,,,,,,,,1720.0,,,37475334.0,37677482.0,36819
123,106713,109300,1093,Central Baptist College,Conway,AR,72034,3,3,35.083838,-92.445021,0.0,0.0,0.0,0.0,0.0,0.0,0.0,0.0,0.0,54.0,0.4981,425.0,565.0,455.0,535.0,,,495.0,495.0,,1041.0,,0.6552,0.1372,0.1119,0.0054,0.0144,0.0,1,26390.0,,17100.0,17100.0,5510.0,0.3846,,0.4118,0.0714,0.3571,0.0,0.6667,,,,0.5706,,,,,,,,,,,,3378294.0,3624265.0,36819
124,106795,2220900,22209,Cossatot Community College of the University of Arkansas,De Queen,AR,71832,1,2,34.043389,-94.3673,0.0,0.0,0.0,0.0,0.0,1.0,0.0,0.0,0.0,,,,,,,,,,,,,,0.4977,0.1659,0.2715,0.0035,0.0104,0.0,1,11154.0,,3570.0,4410.0,5245.0,,0.4131,,,,,,,0.5862,,0.0,,,,,,,,,,,,80587.0,82173.0,36819
125,106810,109500,1095,Crowley's Ridge College,Paragould,AR,72450,3,3,36.064845,-90.584395,0.0,0.0,0.0,0.0,0.0,0.0,0.0,0.0,0.0,74.0,,,,,,,,,,,,,0.7674,0.1977,0.0174,0.0058,0.0,0.0,1,23348.0,,15100.0,15100.0,4132.0,0.3871,,0.3898,0.0,0.5,,,,,,0.7059,,,,,,,,,,,,1464096.0,1528294.0,36819
126,106883,1226000,12260,East Arkansas Community College,Forrest City,AR,72335-2204,1,2,35.041655,-90.767726,0.0,1.0,0.0,0.0,0.0,0.0,0.0,0.0,0.0,,,,,,,,,,,,,,0.4862,0.4724,0.0153,0.0092,0.0,0.0,1,12762.0,,2925.0,3804.0,5233.0,,0.25,,,,,,,0.5217,,0.0533,,,,,,,,,,,,308845.0,326042.0,36819
127,106892,2272400,22724,Eastern College of Health Vocations-Little Rock,Little Rock,AR,72205,1,1,34.75128,-92.341891,0.0,0.0,0.0,0.0,0.0,0.0,0.0,0.0,0.0,,,,,,,,,,,,,,0.1875,0.7625,0.05,0.0,0.0,0.0,1,,17474.0,,,,,0.4852,,,,,,,,,0.7898,,,,,,,,,,2.0,51.0801,,,36819
128,106908,3124900,31249,Paul Mitchell the School-Little Rock,North Little Rock,AR,72117,1,1,34.789913,-92.222202,0.0,0.0,0.0,0.0,0.0,0.0,0.0,0.0,0.0,,,,,,,,,,,,,,0.5259,0.237,0.084,0.0074,0.0148,0.0,1,,26428.0,,,,,0.5957,,,,,,,0.7059,,0.7416,,,,,,,,,,4.0,12.0499,,,36819
129,106980,1210500,12105,National Park College,Hot Springs,AR,71913,1,2,34.512687,-93.119248,0.0,0.0,0.0,0.0,0.0,0.0,0.0,0.0,0.0,,,,,,,,,,,,,,0.733,0.1298,0.0934,0.019,0.0137,0.0,1,14685.0,,4550.0,6230.0,5096.0,,0.1953,,,,,,,0.595,,0.351,,,,,,,,,,,,1348944.0,1331755.0,36819
130,106999,2073500,20735,University of Arkansas Community College-Batesville,Batesville,AR,72503-3350,1,2,35.792923,-91.615852,0.0,0.0,0.0,0.0,0.0,0.0,0.0,0.0,0.0,,,,,,,,,,,,,,0.8223,0.0225,0.0581,0.0118,0.0036,0.0012,1,13911.0,,2526.0,3438.0,3830.0,,0.5228,,,,,,,0.5242,,0.1325,,,,,,,,,,,,,,36819
131,107044,109700,1097,Harding University,Searcy,AR,72149-5615,3,4,35.247386,-91.726143,0.0,0.0,0.0,0.0,0.0,0.0,0.0,0.0,0.0,74.0,0.5507,540.0,650.0,520.0,640.0,,,595.0,580.0,,1207.0,,0.7993,0.0484,0.0392,0.012,0.0023,0.0014,1,31647.0,,21540.0,21540.0,7492.0,0.7152,,0.7348,0.5682,0.6222,0.6,0.5,,,0.75,0.5015,,,,,,,,,1045.0,,,152714178.0,166223072.0,36819
132,107071,109800,1098,Henderson State University,Arkadelphia,AR,71999-0001,3,4,34.128155,-93.059703,0.0,0.0,0.0,0.0,0.0,0.0,0.0,0.0,0.0,,0.749,435.0,590.0,410.0,580.0,,,513.0,495.0,,1098.0,,0.6285,0.1871,0.0657,0.0158,0.0038,0.0104,1,23005.0,,7392.0,9312.0,6704.0,0.3411,,0.4246,0.1667,0.4333,0.75,,,,0.0,0.4332,,,,,,,,,537.0,,,21018609.0,22488060.0,36819
133,107080,109900,1099,Hendrix College,Conway,AR,72032-3080,3,4,35.101565,-92.443256,0.0,0.0,0.0,0.0,0.0,0.0,0.0,0.0,0.0,71.0,0.7054,,,,,,,,,,,,0.4657,0.061,0.0836,0.0263,0.0028,0.0009,1,64046.0,,49490.0,49490.0,7485.0,0.655,,0.6695,0.5,0.35,0.8261,0.5,0.0,,,0.5086,,,,,,,,,10.0,,,196610987.0,181804465.0,36819
134,107099,3007100,30071,Hot Springs Beauty College,Hot Springs,AR,71901,1,1,34.496057,-93.037277,0.0,0.0,0.0,0.0,0.0,0.0,0.0,0.0,0.0,,,,,,,,,,,,,,0.7407,0.1358,0.037,0.0123,0.0123,0.0,1,,17419.0,,,,,0.3846,,,,,,,0.8333,,0.7604,,,,,,,,,,4.0,12.0499,,,36819
135,107123,2330800,23308,Jefferson Regional Medical Center School of Nursing,Pine Bluff,AR,71603,2,2,34.187831,-92.018045,0.0,0.0,0.0,0.0,0.0,0.0,0.0,0.0,0.0,,,,,,,,,,,,,,0.7636,0.1818,0.0364,0.0182,0.0,0.0,1,,,,,7396.0,,,,,,,,,,,0.382,,,,,,,,,,1.0,51.3801,,,36819
136,107141,110000,1100,John Brown University,Siloam Springs,AR,72761,3,4,36.189812,-94.560283,0.0,0.0,0.0,0.0,0.0,0.0,0.0,0.0,0.0,,0.5886,560.0,680.0,530.0,630.0,,,620.0,580.0,,1227.0,,0.7168,0.0202,0.0835,0.0125,0.0146,0.0014,1,40774.0,,28288.0,28288.0,6937.0,0.6447,,0.6569,0.5,0.5455,1.0,0.4,,,1.0,0.4198,,,,,,,,,523.0,,,125569692.0,126697574.0,36819
137,107220,2341700,23417,Career Academy of Hair Design,Springdale,AR,72764-7128,1,1,36.167605,-94.12947,0.0,0.0,0.0,0.0,0.0,0.0,0.0,0.0,0.0,,,,,,,,,,,,,,0.6927,0.0365,0.1875,0.0417,0.0417,0.0,1,,15510.0,,,,,0.5842,,,,,,,0.7582,,0.8201,,,,,,,,,,4.0,12.0401,,,36819
138,107293,1074100,10741,Academy of Salon and Spa,Fort Smith,AR,72901,1,1,35.38097,-94.41616,0.0,0.0,0.0,0.0,0.0,0.0,0.0,0.0,0.0,,,,,,,,,,,,,,0.7547,0.0189,0.1132,0.0,0.0755,0.0,1,,18779.0,,,,,0.85,,,,,,,0.6471,,0.5745,,,,,,,,,,3.0,12.0401,,,36819
139,107318,2348200,23482,Arkansas State University Mid-South,West Memphis,AR,72301-3829,1,2,35.145736,-90.22285,0.0,1.0,0.0,0.0,0.0,0.0,0.0,0.0,0.0,,,,,,,,,,,,,,0.3135,0.5832,0.0438,0.0088,0.0018,0.0,1,13473.0,,2746.0,4186.0,4284.0,,0.1624,,,,,,,0.5517,,0.0,,,,,,,,,,,,2860102.0,3122164.0,36819
140,107327,1286000,12860,Arkansas Northeastern College,Blytheville,AR,72316-1109,1,2,35.898597,-89.921005,0.0,0.0,0.0,0.0,0.0,0.0,0.0,0.0,0.0,,,,,,,,,,,,,,0.6229,0.2985,0.0565,0.0049,0.0012,0.0012,1,10173.0,,2374.0,4054.0,5046.0,,0.2713,,,,,,,0.5154,,0.0,,,,,,,,,,,,3729022.0,3731780.0,36819
141,107442,2284200,22842,New Tyler Barber College Inc,North Little Rock,AR,72114-4973,1,1,34.760085,-92.254171,0.0,0.0,0.0,0.0,0.0,0.0,0.0,0.0,0.0,,,,,,,,,,,,,,0.0,1.0,0.0,0.0,0.0,0.0,1,,21081.0,,,,,0.7,,,,,,,0.75,,0.3404,,,,,,,,,,2.0,12.0402,,,36819
142,107460,1226100,12261,North Arkansas College,Harrison,AR,72601-5508,1,2,36.219909,-93.08844,0.0,0.0,0.0,0.0,0.0,0.0,0.0,0.0,0.0,,,,,,,,,,,,,,0.8101,0.0231,0.0958,0.0074,0.0017,0.0,1,11751.0,,3090.0,5940.0,5386.0,,0.2714,,,,,,,0.5783,,0.108,,,,,,,,,,,,4994425.0,4975226.0,36819
143,107488,2073700,20737,Northwest Technical Institute,Springdale,AR,72764,1,1,36.178032,-94.115346,0.0,0.0,0.0,0.0,0.0,0.0,0.0,0.0,0.0,,,,,,,,,,,,,,0.6183,0.0376,0.2742,0.0215,0.0215,0.0161,1,18248.0,,2326.0,2326.0,,,0.6957,,,,,,,0.9012,,0.0,,,,,,,,,,,,,,36819
144,107512,110200,1102,Ouachita Baptist University,Arkadelphia,AR,71998-0001,3,3,34.126093,-93.052471,0.0,0.0,0.0,0.0,0.0,0.0,0.0,0.0,0.0,75.0,0.6177,520.0,630.0,510.0,600.0,,,575.0,555.0,,1203.0,,0.8059,0.0711,0.0553,0.0099,0.0033,0.0,1,40200.0,,29120.0,29120.0,6510.0,0.6048,,0.6356,0.3429,0.3889,1.0,0.3333,,,,0.4587,,,,,,,,,40.0,,,120789162.0,120694205.0,36819
145,107521,997600,9976,Arkansas State University Three Rivers,Malvern,AR,72104-0816,1,2,34.378745,-92.821416,0.0,0.0,0.0,0.0,0.0,0.0,0.0,0.0,0.0,,,,,,,,,,,,,,0.6261,0.2674,0.0543,0.0087,0.0022,0.0022,1,12436.0,,3458.0,5882.0,4776.0,,0.3,,,,,,,0.5522,,0.1843,,,,,,,,,,,,,,36819
146,107549,2087000,20870,Ozarka College,Melbourne,AR,72556-0010,1,2,36.053031,-91.896355,0.0,0.0,0.0,0.0,0.0,0.0,0.0,0.0,0.0,,,,,,,,,,,,,,0.9488,0.0125,0.0208,0.0069,0.0111,0.0,1,11345.0,,3004.0,5356.0,4772.0,,0.5692,,,,,,,0.5679,,0.1913,,,,,,,,,,,,2029167.0,2023940.0,36819
147,107558,109400,1094,University of the Ozarks,Clarksville,AR,72830,3,3,35.476278,-93.467221,0.0,0.0,0.0,0.0,0.0,0.0,0.0,0.0,0.0,66.0,0.559,470.0,610.0,480.0,620.0,,,540.0,550.0,,1070.0,,0.414,0.0722,0.1264,0.0144,0.0024,0.0012,1,34832.0,,25950.0,25950.0,6680.0,0.4737,,0.4444,0.3636,0.5,0.0,0.0,,,,0.4648,,,,,,,,,,,,115067936.0,112268256.0,36819
148,107585,524500,5245,University of Arkansas Community College-Morrilton,Morrilton,AR,72110,1,2,35.172136,-92.728507,0.0,0.0,0.0,0.0,0.0,0.0,0.0,0.0,0.0,,1.0,,,,,,,,,,,,0.7131,0.0865,0.1055,0.0061,0.0012,0.0006,1,13510.0,,3216.0,4128.0,5151.0,,0.371,,,,,,,0.585,,0.1759,,,,,,,,,,,,171604.0,275220.0,36819
149,107600,110300,1103,Philander Smith College,Little Rock,AR,72202-3799,3,3,34.737131,-92.283015,1.0,0.0,0.0,0.0,0.0,0.0,0.0,0.0,0.0,71.0,,,,,,,,,,,,,0.0013,0.9133,0.0251,0.0,0.0013,0.0025,1,26178.0,,13014.0,13014.0,5971.0,0.3364,,,0.3113,1.0,,,,,0.6667,0.8062,,,,,,,,,,,,9279796.0,9672116.0,36819
150,107619,110400,1104,Phillips Community College of the University of Arkansas,Helena,AR,72342-0785,1,2,34.546155,-90.616884,0.0,1.0,0.0,0.0,0.0,0.0,0.0,0.0,0.0,,,,,,,,,,,,,,0.4519,0.5008,0.0253,0.0051,0.0017,0.0,1,10475.0,,3020.0,4910.0,4843.0,,0.4052,,,,,,,0.469,,0.0,,,,,,,,,,,,,,36819
151,107637,570700,5707,Southeast Arkansas College,Pine Bluff,AR,71603,1,2,34.210309,-92.025936,0.0,1.0,0.0,0.0,0.0,0.0,0.0,0.0,0.0,,,,,,,,,,,,,,0.1889,0.57,0.2258,0.0087,0.0,0.0011,1,12716.0,,3855.0,6735.0,4772.0,,0.1919,,,,,,,0.4198,,0.2436,,,,,,,,,,,,576490.0,586763.0,36819
152,107655,2202400,22024,Professional Cosmetology Education Center,El Dorado,AR,71730-4009,1,1,33.216032,-92.664101,0.0,0.0,0.0,0.0,0.0,0.0,0.0,0.0,0.0,,,,,,,,,,,,,,0.4737,0.4737,0.0263,0.0,0.0,0.0,1,,10895.0,,,,,0.5556,,,,,,,0.6429,,0.8545,,,,,,,,,,2.0,12.0499,,,36819
153,107664,2075300,20753,University of Arkansas-Pulaski Technical College,North Little Rock,AR,72118-3347,1,2,34.782783,-92.299184,0.0,1.0,0.0,0.0,0.0,0.0,0.0,0.0,0.0,,,,,,,,,,,,,,0.424,0.4113,0.0362,0.0176,0.0058,0.0014,1,18410.0,,5670.0,6900.0,4783.0,,0.2415,,,,,,,0.4909,,0.4426,,,,,,,,,,,,3850878.0,3880986.0,36819
154,107725,573200,5732,University of Arkansas Hope-Texarkana,Hope,AR,71801,1,2,33.641665,-93.596762,0.0,0.0,0.0,0.0,0.0,0.0,0.0,0.0,0.0,,,,,,,,,,,,,,0.5444,0.3477,0.0887,0.0048,0.0024,0.0012,1,12374.0,,2980.0,4300.0,4530.0,,0.3774,,,,,,,0.5119,,0.0,,,,,,,,,,,,1973777.0,2045733.0,36819
155,107743,2111100,21111,University of Arkansas Community College Rich Mountain,Mena,AR,71953,1,2,34.591449,-94.219799,0.0,0.0,0.0,0.0,0.0,0.0,0.0,0.0,0.0,,,,,,,,,,,,,,0.7616,0.0125,0.1093,0.0054,0.0251,0.0036,1,12152.0,,3072.0,3648.0,4685.0,,0.5161,,,,,,,0.6464,,0.0636,,,,,,,,,,,,3287588.0,3334510.0,36819
156,107789,792100,7921,Paul Mitchell the School-Arkansas,Fayetteville,AR,72703,1,1,36.126373,-94.153892,0.0,0.0,0.0,0.0,0.0,0.0,0.0,0.0,0.0,,,,,,,,,,,,,,0.8119,0.0,0.1485,0.0,0.0297,0.0099,1,,20600.0,,,,,0.7813,,,,,,,0.7143,,0.5875,,,,,,,,,,1.0,12.0401,,,36819
157,107831,2569600,25696,Searcy Beauty College,Searcy,AR,72143,1,1,35.239148,-91.735135,0.0,0.0,0.0,0.0,0.0,0.0,0.0,0.0,0.0,,,,,,,,,,,,,,0.8608,0.0633,0.038,0.0,0.0253,0.0,1,,17503.0,,,,,0.3824,,,,,,,0.375,,0.5946,,,,,,,,,,3.0,12.0401,,,36819
158,107840,110500,1105,Shorter College,N Little Rock,AR,72114,2,2,34.75933,-92.261331,1.0,0.0,0.0,0.0,0.0,0.0,0.0,0.0,0.0,51.0,,,,,,,,,,,,,0.1256,0.852,0.0135,0.0,0.0045,0.0,1,19113.0,,5596.0,5596.0,3986.0,,0.42,,,,,,,0.5,,0.8054,,,,,,,,,,,,,,36819
159,107877,110600,1106,Williams Baptist University,Walnut Ridge,AR,72476,3,4,36.125676,-90.940277,0.0,0.0,0.0,0.0,0.0,0.0,0.0,0.0,0.0,75.0,0.693,480.0,690.0,480.0,640.0,,,585.0,560.0,,1088.0,,0.7638,0.1121,0.0379,0.0,0.0155,0.0017,1,30063.0,,18500.0,18500.0,5427.0,0.378,,0.3657,0.4706,1.0,,0.0,1.0,,,0.7719,,,,,,,,,29.0,,,15583157.0,14763265.0,36819
160,107974,2074600,20746,South Arkansas Community College,El Dorado,AR,71731-7010,1,2,33.209446,-92.666087,0.0,0.0,0.0,0.0,0.0,0.0,0.0,0.0,0.0,,,,,,,,,,,,,,0.5159,0.3765,0.0578,0.004,0.001,0.0,1,12251.0,,2700.0,4812.0,4965.0,,0.2069,,,,,,,0.5287,,0.2176,,,,,,,,,,,,1355736.0,1199640.0,36819
161,107983,110700,1107,Southern Arkansas University Main Campus,Magnolia,AR,71753,3,4,33.291618,-93.235922,0.0,0.0,0.0,0.0,0.0,0.0,0.0,0.0,0.0,,0.6853,,,,,,,,,,1120.0,,0.6649,0.2384,0.0493,0.0064,0.0051,0.0,1,23044.0,,9080.0,14120.0,6889.0,0.4261,,0.4806,0.2919,0.2857,0.8,1.0,0.6667,,1.0,0.7373,,,,,,,,,985.0,,,43759568.0,52176439.0,36819
162,107992,773800,7738,Southern Arkansas University Tech,Camden,AR,71701-1906,1,2,33.628367,-92.721629,0.0,0.0,0.0,0.0,0.0,0.0,0.0,0.0,0.0,,,,,,,,,,,,,,0.4286,0.4397,0.043,0.0,0.0028,0.0,1,19443.0,,4571.0,6417.0,4355.0,,0.4107,,,,,,,0.5625,,0.1786,,,,,,,,,,,,999357.0,998709.0,36819
163,108065,3214300,32143,Velvatex College of Beauty Culture,Little Rock,AR,72202-5452,1,1,34.735685,-92.289597,0.0,0.0,0.0,0.0,0.0,0.0,0.0,0.0,0.0,,,,,,,,,,,,,,0.0,1.0,0.0,0.0,0.0,0.0,1,,14760.0,,,,,0.8571,,,,,,,0.9,,0.5,,,,,,,,,,2.0,12.0401,,,36819
164,108092,111000,1110,University of Arkansas-Fort Smith,Fort Smith,AR,72913-3649,3,4,35.384184,-94.373729,0.0,0.0,0.0,0.0,0.0,0.0,0.0,0.0,0.0,,,,,,,,,,,,,,0.6184,0.0364,0.1471,0.0529,0.0228,0.002,1,17288.0,,5754.0,13026.0,7065.0,0.3108,,0.312,0.2083,0.3383,0.4,0.28,,,0.5385,0.3553,,,,,,,,,57.0,,,92925797.0,93712579.0,36819
165,108232,753100,7531,Academy of Art University,San Francisco,CA,94105,3,4,37.787943,-122.400578,0.0,0.0,0.0,0.0,0.0,0.0,0.0,0.0,0.0,,,,,,,,,,,,,,0.156,0.0707,0.1169,0.046,0.0045,0.0037,1,43976.0,,24664.0,24664.0,7328.0,0.4688,,0.4167,0.2083,0.3671,0.4038,0.625,0.25,,0.438,0.4825,,,,,,,,,2804.0,,,,,36819
166,108269,3288300,32883,Academy of Chinese Culture and Health Sciences,Oakland,CA,94612,4,4,37.805972,-122.269839,0.0,0.0,0.0,0.0,0.0,0.0,0.0,0.0,0.0,,,,,,,,,,,,,,,,,,,,1,,,,,3792.0,,,,,,,,,,,,,,,,,,,,97.0,,,,,36819
167,108667,672000,6720,College of Alameda,Alameda,CA,94501,2,2,37.781017,-122.279303,0.0,0.0,0.0,0.0,1.0,1.0,0.0,0.0,0.0,,,,,,,,,,,,,,0.1645,0.1725,0.245,0.2556,0.0024,0.0053,1,17384.0,,1167.0,7527.0,9034.0,,0.2576,,,,,,,0.5096,,0.0061,,,,,,,,,,,,,,36819
168,108807,111100,1111,Allan Hancock College,Santa Maria,CA,93454-6399,2,2,34.943716,-120.421144,0.0,0.0,0.0,0.0,0.0,1.0,0.0,0.0,0.0,,,,,,,,,,,,,,0.2232,0.0183,0.6543,0.0349,0.0029,0.0032,1,10701.0,,1188.0,7482.0,8603.0,,0.3359,,,,,,,0.6375,,0.0088,,,,,,,,,,,,24654762.0,26184121.0,36819
169,108852,746501,7465,American Academy of Dramatic Arts-Los Angeles,Los Angeles,CA,90028,1,1,34.095378,-118.343701,0.0,0.0,0.0,0.0,0.0,0.0,0.0,0.0,0.0,,0.8939,,,,,,,,,,,,0.3019,0.1604,0.1698,0.0094,0.0,0.0,1,52029.0,,37230.0,37230.0,8751.0,,0.7168,,,,,,,0.3261,,0.5418,,,,,,,,,,,,1141829.0,1141829.0,36819
170,108861,112000,1120,Berkeley School of Theology,Berkeley,CA,94704-3029,4,4,37.865252,-122.256149,0.0,0.0,0.0,0.0,0.0,0.0,0.0,0.0,0.0,52.0,,,,,,,,,,,,,,,,,,,1,,,,,6464.0,,,,,,,,,,,,,,,,,,,,42.0,,,7524745.0,7612567.0,36819
171,108870,2222000,22220,American Film Institute Conservatory,Los Angeles,CA,90027-1625,4,4,34.10767,-118.310018,0.0,0.0,0.0,0.0,0.0,0.0,0.0,0.0,0.0,,,,,,,,,,,,,,,,,,,,1,,,,,8838.0,,,,,,,,,,,,,,,,,,,,337.0,,,13012602.0,13500946.0,36819
172,108977,1307400,13074,American Beauty College,West Covina,CA,91790,1,1,34.069367,-117.936959,0.0,0.0,0.0,0.0,0.0,0.0,0.0,0.0,0.0,,,,,,,,,,,,,,0.1842,0.0439,0.7368,0.0175,0.0088,0.0,1,,17862.0,,,,,0.6667,,,,,,,0.5714,,0.3766,,,,,,,,,,4.0,12.0401,,,36819
173,109040,2241800,22418,American Career College-Los Angeles,Los Angeles,CA,90004,1,2,34.079323,-118.292481,0.0,0.0,0.0,0.0,0.0,0.0,0.0,0.0,0.0,,,,,,,,,,,,,,0.0742,0.1536,0.6008,0.1045,0.0011,0.0131,1,,23818.0,,,6290.0,,0.7226,,,,,,,0.766,,0.6085,,,,,,,,,,9.0,51.0801,,,36819
174,109086,2099200,20992,American Conservatory Theater,San Francisco,CA,94102,1,4,37.786923,-122.410265,0.0,0.0,0.0,0.0,0.0,0.0,0.0,0.0,0.0,,,,,,,,,,,,,,1.0,0.0,0.0,0.0,0.0,0.0,1,,,30800.0,30800.0,10514.0,,,,,,,,,,,0.1111,,,,,,,,,23.0,,,25476819.0,24292329.0,36819
175,109208,123200,1232,American River College,Sacramento,CA,95841-4286,2,2,38.65085,-121.349672,0.0,0.0,0.0,0.0,1.0,0.0,0.0,0.0,0.0,,,,,,,,,,,,,,0.408,0.0737,0.2558,0.1414,0.0055,0.0095,1,12243.0,,1288.0,9760.0,8939.0,,0.3063,,,,,,,0.6412,,0.0312,,,,,,,,,,,,,,36819
176,109350,111300,1113,Antelope Valley Community College District,Lancaster,CA,93536-5426,2,3,34.676207,-118.186166,0.0,0.0,0.0,0.0,0.0,1.0,0.0,0.0,0.0,,,,,,,,,,,,,,0.1632,0.1194,0.6097,0.036,0.0022,0.0015,1,16422.0,,1124.0,6980.0,9318.0,0.2732,,0.3836,0.1391,0.2524,0.3824,0.1667,0.0,,,0.0565,,,,,,,,,,,,5144097.0,5501257.0,36819
177,109651,111600,1116,Art Center College of Design,Pasadena,CA,91103,3,4,34.169031,-118.185102,0.0,0.0,0.0,0.0,0.0,0.0,0.0,0.0,0.0,,0.7609,,,,,,,,,,,,0.1185,0.0131,0.0944,0.3346,0.001,0.0037,1,66046.0,,46486.0,46486.0,8009.0,0.7143,,0.7619,0.3333,0.6923,0.7059,1.0,1.0,,,0.4733,,,,,,,,,270.0,,,99830000.0,98145000.0,36819
178,109721,902200,9022,Associated Technical College-Los Angeles,Los Angeles,CA,90017-1604,1,1,34.056102,-118.272364,0.0,0.0,0.0,0.0,0.0,0.0,0.0,0.0,0.0,,,,,,,,,,,,,,0.25,0.3587,0.3152,0.0,0.0,0.0,1,,27363.0,,,,,0.5731,,,,,,,0.6703,,0.335,,,,,,,,,,1.0,51.0901,,,36819
179,109730,2553500,25535,Associated Technical College-San Diego,San Diego,CA,92108-1630,1,1,32.773178,-117.135196,0.0,0.0,0.0,0.0,0.0,0.0,0.0,0.0,0.0,,,,,,,,,,,,,,0.2667,0.2889,0.3333,0.0,0.0,0.0444,1,,27797.0,,,,,0.7228,,,,,,,,,0.3861,,,,,,,,,,2.0,10.9999,,,36819
180,109785,111700,1117,Azusa Pacific University,Azusa,CA,91702-7000,3,4,34.130047,-117.888375,0.0,0.0,0.0,0.0,0.0,0.0,0.0,0.0,0.0,88.0,0.936,,,,,,,,,,,,0.3248,0.0627,0.3573,0.1201,0.0031,0.0087,1,56802.0,,41410.0,41410.0,9132.0,0.6622,,0.6967,0.4,0.5898,0.7363,,0.5455,,0.25,0.5372,,,,,,,,,4508.0,,,79262648.0,76922937.0,36819
181,109819,111800,1118,Bakersfield College,Bakersfield,CA,93305-1299,2,3,35.40911,-118.973753,0.0,0.0,0.0,0.0,0.0,1.0,0.0,0.0,0.0,,,,,,,,,,,,,,0.1897,0.0473,0.6698,0.043,0.0026,0.001,1,13774.0,,1418.0,9908.0,9947.0,0.2127,,0.2975,0.0588,0.191,0.3043,0.1667,0.5,,,0.0105,,,,,,,,,,,,12849804.0,12624306.0,36819
182,109907,111900,1119,Barstow Community College,Barstow,CA,92311,2,2,34.870285,-117.023412,0.0,0.0,0.0,0.0,0.0,1.0,0.0,0.0,0.0,,,,,,,,,,,,,,0.2622,0.1486,0.4598,0.0318,0.0055,0.0123,1,16983.0,,1104.0,8088.0,9456.0,,0.3502,,,,,,,0.5939,,0.0,,,,,,,,,,,,703474.0,723477.0,36819
183,109934,705000,7050,Bellus Academy-Chula Vista,Chula Vista,CA,91911,1,1,32.614773,-117.083738,0.0,0.0,0.0,0.0,0.0,0.0,0.0,0.0,0.0,,,,,,,,,,,,,,0.0689,0.1557,0.5778,0.0509,0.009,0.012,1,,27654.0,,,,,0.5172,,,,,,,0.6154,,0.5779,,,,,,,,,,9.0,12.0499,,,36819
184,110060,3266300,32663,Bethesda University,Anaheim,CA,92801,3,4,33.842295,-117.941323,0.0,0.0,0.0,0.0,0.0,0.0,0.0,0.0,0.0,99.0,,,,,,,,,,,,,0.0667,0.0947,0.1895,0.1649,0.0,0.0,1,22453.0,,6580.0,6580.0,2221.0,0.24,,0.2632,0.1765,0.16,0.3333,,,,0.2,0.2,,,,,,,,,114.0,,,,,36819
185,110097,112200,1122,Biola University,La Mirada,CA,90639-0001,3,4,33.906203,-118.014374,0.0,0.0,0.0,0.0,1.0,0.0,0.0,0.0,0.0,88.0,0.6438,540.0,650.0,530.0,640.0,,,595.0,585.0,,1196.0,,0.4285,0.031,0.2085,0.1537,0.003,0.0174,1,58012.0,,43512.0,43512.0,7394.0,0.714,,0.7672,0.5714,0.6045,0.76,0.5,,,0.75,0.539,,,,,,,,,2132.0,,,161976205.0,163345746.0,36819
186,110194,2543400,25434,Brownson Technical School,Anaheim,CA,92805,1,1,33.819032,-117.905774,0.0,0.0,0.0,0.0,0.0,0.0,0.0,0.0,0.0,,,,,,,,,,,,,,0.3158,0.0175,0.4737,0.193,0.0,0.0,1,,35178.0,,,,,0.8698,,,,,,,0.9677,,0.7591,,,,,,,,,,1.0,47.0201,,,36819
187,110219,716400,7164,Bryan University,Tempe,AZ,85281,1,3,33.437779,-111.944197,0.0,0.0,0.0,0.0,0.0,0.0,0.0,0.0,0.0,,,,,,,,,,,,,,0.4348,0.1852,0.0681,0.0089,0.0104,0.0022,1,21134.0,,11755.0,11755.0,5136.0,0.2516,,0.3362,0.2821,0.069,0.0,0.25,0.0,,,0.7489,,,,,,,,,,,,,,36819
188,110246,807300,8073,Butte College,Oroville,CA,95965-8399,2,2,39.649782,-121.644831,0.0,0.0,0.0,0.0,0.0,1.0,0.0,0.0,0.0,,,,,,,,,,,,,,0.503,0.0209,0.3101,0.0602,0.0104,0.0045,1,13806.0,,1368.0,8088.0,9728.0,,0.2263,,,,,,,0.6409,,0.0526,,,,,,,,,,,,4301516.0,4603546.0,36819
189,110316,1215400,12154,California Institute of Integral Studies,San Francisco,CA,94103,3,4,37.774924,-122.416102,0.0,0.0,0.0,0.0,0.0,0.0,0.0,0.0,0.0,,,,,,,,,,,,,,0.551,0.102,0.1633,0.0408,0.0102,0.0,1,,,,,8605.0,,,,,,,,,,,0.5857,,,,,,,,,1432.0,,,2229376.0,2422508.0,36819
190,110334,112400,1124,Cabrillo College,Aptos,CA,95003,2,2,36.989448,-121.924797,0.0,0.0,0.0,0.0,0.0,1.0,0.0,0.0,0.0,,,,,,,,,,,,,,0.4102,0.0093,0.4731,0.0302,0.003,0.0017,1,19207.0,,1270.0,7630.0,8467.0,,0.3002,,,,,,,0.6998,,0.0113,,,,,,,,,,,,25625557.0,26539199.0,36819
191,110361,112500,1125,California Baptist University,Riverside,CA,92504-3297,3,4,33.929321,-117.425619,0.0,0.0,0.0,0.0,0.0,1.0,0.0,0.0,0.0,75.0,0.8018,480.0,580.0,480.0,570.0,,,530.0,525.0,,1064.0,,0.3651,0.0635,0.3801,0.0643,0.0057,0.008,1,48731.0,,36340.0,36340.0,10122.0,0.6195,,0.6963,0.463,0.5373,0.6977,0.4,0.7143,,0.3438,0.6711,,,,,,,,,3208.0,,,65618267.0,82924687.0,36819
192,110370,112700,1127,California College of the Arts,San Francisco,CA,94107-2247,3,4,37.767485,-122.399451,0.0,0.0,0.0,0.0,0.0,0.0,0.0,0.0,0.0,,0.8545,,,,,,,,,,,,0.1657,0.0531,0.1453,0.1837,0.0065,0.0041,1,68956.0,,51137.0,51137.0,9906.0,0.6703,,0.5616,0.6429,0.5854,0.8039,,0.3333,,,0.3035,,,,,,,,,373.0,,,36150000.0,37330000.0,36819
193,110398,394700,3947,University of California-Hastings College of Law,San Francisco,CA,94102-4978,4,4,37.781137,-122.4157,0.0,0.0,0.0,0.0,0.0,0.0,0.0,0.0,0.0,,,,,,,,,,,,,,,,,,,,1,,,,,16253.0,,,,,,,,,,,,,,,,,,,,1026.0,,,46340933.0,47093840.0,36819
194,110404,113100,1131,California Institute of Technology,Pasadena,CA,91125,3,4,34.137349,-118.125878,0.0,0.0,0.0,0.0,0.0,0.0,0.0,0.0,0.0,,0.0669,740.0,780.0,790.0,800.0,,,760.0,795.0,,1566.0,,0.2342,0.0189,0.1809,0.3973,0.0,0.0011,1,74763.0,,56862.0,56862.0,20228.0,0.9156,,0.9123,0.5,0.7576,0.9619,,,,,0.0373,,,,,,,,,1339.0,,,2987001000.0,3085500000.0,36819
195,110413,113300,1133,California Lutheran University,Thousand Oaks,CA,91360-2787,3,4,34.224566,-118.878924,0.0,0.0,0.0,0.0,0.0,1.0,0.0,0.0,0.0,39.0,0.7439,540.0,620.0,530.0,620.0,,,580.0,575.0,,1159.0,,0.3907,0.0375,0.3925,0.0536,0.0014,0.005,1,60668.0,,45982.0,45982.0,10381.0,0.7086,,0.7,0.64,0.7355,0.8,1.0,1.0,,,0.5328,,,,,,,,,1223.0,,,107158450.0,116063460.0,36819
196,110422,114300,1143,California Polytechnic State University-San Luis Obispo,San Luis Obispo,CA,93407,3,4,35.299513,-120.657311,0.0,0.0,0.0,0.0,1.0,0.0,0.0,0.0,0.0,,0.3843,610.0,690.0,610.0,720.0,,,650.0,665.0,,1325.0,,0.5365,0.0076,0.1838,0.1344,0.0013,0.0022,1,28927.0,,10071.0,25971.0,10647.0,0.8309,,0.8547,0.5758,0.7763,0.83,1.0,0.6667,,0.7273,0.2637,,,,,,,,,984.0,,,227678094.0,226112910.0,36819
197,110468,1111700,11117,Alliant International University-San Diego,San Diego,CA,92131,1,4,32.897056,-117.094398,0.0,0.0,0.0,0.0,0.0,0.0,0.0,0.0,0.0,,0.381,,,,,,,,,,,,0.4867,0.0929,0.2434,0.0708,0.0,0.0088,1,,,13680.0,13680.0,8623.0,0.2,,0.0,,0.1667,,,,,0.0,0.1696,,,,,,,,,2998.0,,,,,36819
198,110486,799300,7993,California State University-Bakersfield,Bakersfield,CA,93311-1099,3,4,35.350005,-119.104711,0.0,0.0,0.0,0.0,0.0,1.0,0.0,0.0,0.0,,0.7838,,,,,,,,,,,,0.1383,0.0439,0.6215,0.0637,0.0028,0.0022,1,18661.0,,7498.0,19378.0,9489.0,0.4629,,0.494,0.3444,0.4456,0.5109,0.6,,,0.3125,0.3099,,,,,,,,,1766.0,,,25474074.0,26944055.0,36819
199,110495,115700,1157,California State University-Stanislaus,Turlock,CA,95382-0299,3,4,37.52577,-120.852511,0.0,0.0,0.0,0.0,0.0,1.0,0.0,0.0,0.0,,0.8932,,,,,,,,,,,,0.19,0.021,0.5806,0.0894,0.0015,0.0057,1,17424.0,,7584.0,19464.0,9630.0,0.5726,,0.5939,0.3,0.5567,0.6638,0.6667,0.6667,,0.4286,0.3021,,,,,,,,,1260.0,,,16552261.0,16131357.0,36819
200,110510,114200,1142,California State University-San Bernardino,San Bernardino,CA,92407-2393,3,4,34.182622,-117.323801,0.0,0.0,0.0,0.0,0.0,1.0,0.0,0.0,0.0,,0.7812,460.0,540.0,450.0,540.0,,,500.0,495.0,,988.0,,0.1047,0.0477,0.6868,0.05,0.0019,0.0014,1,19114.0,,6952.0,18832.0,9943.0,0.5874,,0.6322,0.5391,0.5841,0.5872,0.25,0.75,,0.5641,0.2743,,,,,,,,,2439.0,,,41652279.0,45146813.0,36819
201,110529,114400,1144,California State Polytechnic University-Pomona,Pomona,CA,91768,3,4,34.057912,-117.821476,0.0,0.0,0.0,0.0,1.0,1.0,0.0,0.0,0.0,,0.6481,500.0,610.0,510.0,640.0,,,555.0,575.0,,1134.0,,0.1427,0.0317,0.4939,0.2167,0.0013,0.0021,1,22365.0,,7438.0,19318.0,10677.0,0.674,,0.7143,0.5282,0.6292,0.7891,0.2857,0.1429,,0.6275,0.3045,,,,,,,,,2102.0,,,101598664.0,105450164.0,36819
202,110538,114600,1146,California State University-Chico,Chico,CA,95929-0150,3,4,39.729712,-121.844859,0.0,0.0,0.0,0.0,0.0,1.0,0.0,0.0,0.0,,0.9017,490.0,590.0,480.0,580.0,,,540.0,530.0,,1073.0,,0.4309,0.0287,0.3573,0.0552,0.0048,0.0025,1,25073.0,,7864.0,19744.0,9682.0,0.6515,,0.7094,0.5745,0.6069,0.6013,0.6154,0.8333,,0.5909,0.407,,,,,,,,,999.0,,,65293330.0,62941713.0,36819
203,110547,114100,1141,California State University-Dominguez Hills,Carson,CA,90747-0005,3,4,33.864766,-118.255917,0.0,0.0,0.0,0.0,0.0,1.0,0.0,0.0,0.0,,0.812,,,,,,,,,,,,0.0526,0.107,0.6713,0.0686,0.0012,0.0031,1,15019.0,,6941.0,18821.0,9836.0,0.4751,,0.5758,0.4341,0.4766,0.5783,0.0,0.6667,,0.4286,0.2698,,,,,,,,,2665.0,,,13861733.0,13967089.0,36819
204,110556,114700,1147,California State University-Fresno,Fresno,CA,93740,3,4,36.811154,-119.744569,0.0,0.0,0.0,0.0,1.0,1.0,0.0,0.0,0.0,,0.9011,450.0,560.0,440.0,540.0,,,505.0,490.0,,996.0,,0.1735,0.0283,0.5654,0.1229,0.0039,0.0017,1,17683.0,,6643.0,18523.0,9545.0,0.5754,,0.664,0.4174,0.5739,0.5,0.3333,0.6667,,0.5273,0.2448,,,,,,,,,2793.0,,,159952210.0,160725549.0,36819
205,110565,113700,1137,California State University-Fullerton,Fullerton,CA,92831-3599,3,4,33.881506,-117.885446,0.0,0.0,0.0,0.0,1.0,1.0,0.0,0.0,0.0,,0.6762,500.0,590.0,500.0,590.0,,,545.0,545.0,,1085.0,,0.1713,0.0197,0.4803,0.2103,0.0008,0.0018,1,17791.0,,6953.0,18833.0,10331.0,0.6868,,0.6812,0.7143,0.6747,0.7471,0.3333,0.625,,0.7093,0.2515,,,,,,,,,5076.0,,,70435570.0,83135713.0,36819
206,110574,113800,1138,California State University-East Bay,Hayward,CA,94542,3,4,37.657694,-122.054135,0.0,0.0,0.0,0.0,1.0,1.0,0.0,0.0,0.0,,0.7328,,,,,,,,,,,,0.1478,0.096,0.3701,0.2294,0.0017,0.011,1,23357.0,,6890.0,18770.0,10357.0,0.4675,,0.5401,0.3039,0.4391,0.5774,0.6667,0.4286,,0.1429,0.323,,,,,,,,,3112.0,,,17849631.0,16921045.0,36819
207,110583,113900,1139,California State University-Long Beach,Long Beach,CA,90840-0115,3,4,33.782818,-118.11204,0.0,0.0,0.0,0.0,1.0,1.0,0.0,0.0,0.0,,0.4212,510.0,620.0,510.0,620.0,,,565.0,565.0,,1133.0,,0.1628,0.0376,0.4604,0.2076,0.001,0.0025,1,19846.0,,6834.0,18714.0,10271.0,0.7333,,0.7229,0.6148,0.7052,0.8064,0.5,0.5,,0.7368,0.2831,,,,,,,,,5853.0,,,79351657.0,85609003.0,36819
208,110592,114000,1140,California State University-Los Angeles,Los Angeles,CA,90032-8506,3,4,34.066927,-118.168965,0.0,0.0,0.0,0.0,1.0,1.0,0.0,0.0,0.0,,0.7648,440.0,530.0,430.0,530.0,,,485.0,480.0,,964.0,,0.0422,0.0337,0.7181,0.1142,0.0011,0.001,1,15307.0,,6781.0,18661.0,10198.0,0.524,,0.5729,0.4787,0.5079,0.6279,0.0,0.5,,0.5345,0.2227,,,,,,,,,3913.0,,,45489869.0,49109390.0,36819
209,110608,115300,1153,California State University-Northridge,Northridge,CA,91330,3,4,34.240126,-118.529319,0.0,0.0,0.0,0.0,0.0,1.0,0.0,0.0,0.0,,0.6581,460.0,560.0,440.0,550.0,,,510.0,495.0,,1006.0,,0.2061,0.0475,0.5271,0.0898,0.0008,0.0013,1,19794.0,,7017.0,18897.0,10318.0,0.5462,,0.6612,0.4123,0.5238,0.6684,0.75,0.3333,,0.6286,0.2714,,,,,,,,,5465.0,,,136542253.0,139512006.0,36819
210,110617,115000,1150,California State University-Sacramento,Sacramento,CA,95819-2694,3,4,38.559415,-121.423549,0.0,0.0,0.0,0.0,1.0,1.0,0.0,0.0,0.0,,0.8309,470.0,570.0,460.0,560.0,,,520.0,510.0,,1033.0,,0.2451,0.0626,0.3553,0.1952,0.0021,0.0091,1,21576.0,,7418.0,19298.0,9824.0,0.5358,,0.6006,0.4344,0.5028,0.5587,0.375,0.4194,,0.6933,0.3119,,,,,,,,,2997.0,,,51220288.0,55008546.0,36819
211,110635,131200,1312,University of California-Berkeley,Berkeley,CA,94720,3,4,37.871918,-122.260463,0.0,0.0,0.0,0.0,0.0,0.0,0.0,0.0,0.0,,0.1748,650.0,740.0,660.0,790.0,,,695.0,725.0,,1437.0,,0.2184,0.0213,0.1867,0.3534,0.0008,0.0016,1,39016.0,,14312.0,44066.0,18027.0,0.9234,,0.9298,0.8252,0.856,0.9528,0.6364,1.0,,0.9375,0.2032,,,,,,,,,11528.0,,,2143756000.0,2173287000.0,36819
212,110644,131300,1313,University of California-Davis,Davis,CA,95616-8678,3,4,38.539667,-121.749567,0.0,0.0,0.0,0.0,1.0,0.0,0.0,0.0,0.0,,0.4635,570.0,670.0,590.0,730.0,,,620.0,660.0,,1299.0,,0.2166,0.0204,0.2403,0.2837,0.0015,0.0037,1,35532.0,,14597.0,44351.0,15450.0,0.8625,,0.8853,0.8235,0.783,0.9028,0.7692,0.7826,,0.8197,0.2904,,,,,,,,,7912.0,,,477813000.0,484130000.0,36819
213,110653,131400,1314,University of California-Irvine,Irvine,CA,92697,3,4,33.648434,-117.841248,0.0,0.0,0.0,0.0,1.0,1.0,0.0,0.0,0.0,,0.2992,600.0,680.0,630.0,750.0,,,640.0,690.0,,1339.0,,0.1293,0.0197,0.2514,0.3746,0.0007,0.0023,1,34355.0,,13753.0,43507.0,16461.0,0.8498,,0.8733,0.8191,0.7871,0.9094,,0.8571,,0.625,0.2795,,,,,,,,,6665.0,,,483215000.0,532004000.0,36819
214,110662,131500,1315,University of California-Los Angeles,Los Angeles,CA,90095-1405,3,4,34.07178,-118.442179,0.0,0.0,0.0,0.0,0.0,0.0,0.0,0.0,0.0,,0.1433,,,,,,,,,,,,0.259,0.0317,0.2182,0.2894,0.0015,0.0019,1,35497.0,,13249.0,43003.0,19286.0,0.9129,,0.9345,0.8128,0.8702,0.9369,0.8182,0.8125,,0.7273,0.2694,,,,,,,,,12953.0,,,2255362000.0,2359984000.0,36819
215,110671,131600,1316,University of California-Riverside,Riverside,CA,92521,3,4,33.97246,-117.32741,0.0,0.0,0.0,0.0,1.0,1.0,0.0,0.0,0.0,,0.6578,540.0,630.0,540.0,650.0,,,585.0,595.0,,1200.0,,0.1119,0.0353,0.4144,0.3469,0.0012,0.0035,1,30561.0,,14024.0,43778.0,14331.0,0.7729,,0.7852,0.7815,0.7366,0.8181,0.625,0.625,,0.6923,0.4309,,,,,,,,,3741.0,,,176554000.0,193196000.0,36819
216,110680,131700,1317,University of California-San Diego,La Jolla,CA,92093,3,4,32.877749,-117.235866,0.0,0.0,0.0,0.0,0.0,0.0,0.0,0.0,0.0,,0.3661,620.0,710.0,650.0,770.0,,,665.0,710.0,,1387.0,,0.1907,0.0174,0.2179,0.3337,0.0009,0.0019,1,33240.0,,14648.0,44402.0,16513.0,0.8712,,0.8542,0.7708,0.797,0.9227,1.0,1.0,,0.5,0.3142,,,,,,,,,7734.0,,,799390000.0,895245000.0,36819
217,110699,131900,1319,University of California-San Francisco,San Francisco,CA,94143-0244,4,4,37.763737,-122.458489,0.0,0.0,0.0,0.0,0.0,0.0,0.0,0.0,0.0,,,,,,,,,,,,,,,,,,,,1,,,,,16384.0,,,,,,,,,,,,,,,,,,,,3201.0,,,1602091000.0,1779820000.0,36819
218,110705,132000,1320,University of California-Santa Barbara,Santa Barbara,CA,93106,3,4,34.416297,-119.846426,0.0,0.0,0.0,0.0,1.0,1.0,0.0,0.0,0.0,,0.367,620.0,710.0,610.0,750.0,,,665.0,680.0,,1369.0,,0.3042,0.0196,0.2468,0.1848,0.0016,0.0013,1,36492.0,,14406.0,44160.0,16895.0,0.8398,,0.8682,0.7838,0.7857,0.8548,0.8333,0.9412,,0.7143,0.2803,,,,,,,,,2983.0,,,251550000.0,278285000.0,36819
219,110714,132100,1321,University of California-Santa Cruz,Santa Cruz,CA,95064-1011,3,4,36.995584,-122.058801,0.0,0.0,0.0,0.0,1.0,1.0,0.0,0.0,0.0,,0.6473,580.0,670.0,580.0,690.0,,,625.0,635.0,,1284.0,,0.3011,0.0191,0.2718,0.2303,0.0009,0.0011,1,35925.0,,14025.0,43779.0,15214.0,0.7555,,0.7619,0.7407,0.7118,0.8253,0.8,0.6,,0.5385,0.347,,,,,,,,,1954.0,,,110406000.0,115645000.0,36819
220,110778,2267600,22676,Sofia University,Palo Alto,CA,94303,3,4,37.430325,-122.10866,0.0,0.0,0.0,0.0,0.0,0.0,0.0,0.0,0.0,,,,,,,,,,,,,,0.2222,0.1111,0.3333,0.0,0.0,0.0,1,,,,,5784.0,,,,,,,,,,,0.7778,,,,,,,,,1504.0,,,,,36819
221,110875,2065700,20657,California Beauty School,Modesto,CA,95354,1,1,37.645217,-120.99689,0.0,0.0,0.0,0.0,0.0,0.0,0.0,0.0,0.0,,,,,,,,,,,,,,0.4681,0.0638,0.4255,0.0,0.0,0.0,1,,18361.0,,,,,0.9032,,,,,,,0.8,,0.646,,,,,,,,,,4.0,12.0401,,,36819
222,110918,884400,8844,California Christian College,Fresno,CA,93727,3,3,36.749366,-119.711123,0.0,0.0,0.0,0.0,0.0,0.0,0.0,0.0,0.0,41.0,1.0,,,,,,,,,,,,0.2308,0.3077,0.3846,0.0769,0.0,0.0,1,15210.0,,10050.0,10050.0,4388.0,,,,,,,,,,,0.3636,,,,,,,,,,,,108103.0,114664.0,36819
223,111045,4274800,42748,Haven University,Garden Grove,CA,92840-1340,3,4,33.777392,-117.939412,0.0,0.0,0.0,0.0,0.0,0.0,0.0,0.0,0.0,108.0,,,,,,,,,,,,,0.0,0.2632,0.0526,0.2105,0.0,0.0,1,,,6860.0,6860.0,1150.0,,,,,,,,,,,0.0,,,,,,,,,19.0,,,,,36819
224,111054,1186500,11865,California Hair Design Academy,La Mesa,CA,91942-5055,1,1,32.765221,-117.024261,0.0,0.0,0.0,0.0,0.0,0.0,0.0,0.0,0.0,,,,,,,,,,,,,,0.4156,0.1039,0.2727,0.0909,0.0,0.0,1,,33180.0,,,,,0.493,,,,,,,1.0,,0.3567,,,,,,,,,,5.0,12.0401,,,36819
225,111081,113200,1132,California Institute of the Arts,Valencia,CA,91355-2397,3,4,34.39327,-118.566837,0.0,0.0,0.0,0.0,0.0,0.0,0.0,0.0,0.0,,0.2742,,,,,,,,,,,,0.399,0.0486,0.1444,0.0814,0.0026,0.0026,1,74111.0,,53466.0,53466.0,9453.0,0.6649,,0.6418,0.6111,0.6129,0.7692,1.0,1.0,,0.0,0.4461,,,,,,,,,404.0,,,178839344.0,179402319.0,36819
226,111188,113400,1134,California State University Maritime Academy,Vallejo,CA,94590-8181,3,4,38.069061,-122.231551,0.0,0.0,0.0,0.0,0.0,0.0,0.0,0.0,0.0,,0.8249,,,,,,,,,,,,0.4576,0.0232,0.2293,0.1058,0.0055,0.0132,1,28149.0,,7160.0,19040.0,10329.0,0.6068,,0.6569,0.0,0.5385,0.6316,1.0,1.0,,,0.483,,,,,,,,,45.0,,,9284095.0,10783408.0,36819
227,111391,1310300,13103,California Western School of Law,San Diego,CA,92101-3046,4,4,32.722192,-117.162416,0.0,0.0,0.0,0.0,0.0,0.0,0.0,0.0,0.0,,,,,,,,,,,,,,,,,,,,1,,,,,12038.0,,,,,,,,,,,,,,,,,,,,796.0,,,25228270.0,25064136.0,36819
228,111434,697300,6973,Canada College,Redwood City,CA,94061-1099,2,2,37.44877,-122.265398,0.0,0.0,0.0,0.0,1.0,1.0,0.0,0.0,0.0,,,,,,,,,,,,,,0.2391,0.0255,0.4139,0.1729,0.0009,0.0117,1,9662.0,,1362.0,9006.0,10832.0,,0.3438,,,,,,,0.6343,,0.0036,,,,,,,,,,,,,,36819
229,111461,890300,8903,College of the Canyons,Santa Clarita,CA,91355-1899,2,2,34.403993,-118.568698,0.0,0.0,0.0,0.0,1.0,1.0,0.0,0.0,0.0,,,,,,,,,,,,,,0.2663,0.0543,0.5177,0.0994,0.003,0.0024,1,11774.0,,1156.0,7804.0,11214.0,,0.4213,,,,,,,0.7091,,0.013,,,,,,,,,,,,4141314.0,2383595.0,36819
230,111513,2125000,21250,Career Academy of Beauty,Garden Grove,CA,92845,1,1,33.781018,-118.031697,0.0,0.0,0.0,0.0,0.0,0.0,0.0,0.0,0.0,,,,,,,,,,,,,,0.3352,0.0503,0.419,0.162,0.0,0.0112,1,,18579.0,,,,,0.8033,,,,,,,0.6923,,0.5993,,,,,,,,,,6.0,12.0401,,,36819
231,111638,673100,6731,Casa Loma College-Van Nuys,Van Nuys,CA,91405,2,2,34.192829,-118.457781,0.0,0.0,0.0,0.0,0.0,0.0,0.0,0.0,0.0,,,,,,,,,,,,,,0.3476,0.0732,0.4146,0.1159,0.0122,0.0061,1,,25330.0,,,6174.0,0.3659,,0.5,0.8,0.2692,0.3333,,,,,0.6887,,,,,,,,,,5.0,51.092,,,36819
232,111708,2332809,23328,CET-San Diego,San Diego,CA,92102,1,1,32.711302,-117.105328,0.0,0.0,0.0,0.0,0.0,0.0,0.0,0.0,0.0,,,,,,,,,,,,,,0.132,0.0812,0.3553,0.3959,0.0,0.0152,1,,26564.0,,,,,0.5597,,,,,,,0.9375,,0.3609,,,,,,,,,,3.0,48.0508,,,36819
233,111717,2332800,23328,CET-San Jose,San Jose,CA,95110,1,1,37.322723,-121.88698,0.0,0.0,0.0,0.0,0.0,0.0,0.0,0.0,0.0,,,,,,,,,,,,,,0.076,0.0234,0.7836,0.0351,0.0058,0.0,1,,23292.0,,,,,0.7365,,,,,,,0.6129,,0.3194,,,,,,,,,,10.0,46.0302,,,36819
234,111726,2332810,23328,CET-El Centro,El Centro,CA,92243,1,1,32.790908,-115.549079,0.0,0.0,0.0,0.0,0.0,0.0,0.0,0.0,0.0,,,,,,,,,,,,,,0.0208,0.0,0.9722,0.0,0.0,0.0,1,,24894.0,,,,,0.9194,,,,,,,0.9615,,0.0619,,,,,,,,,,5.0,48.0508,,,36819
235,111744,2332814,23328,CET-Colton,Colton,CA,92324,1,1,34.077381,-117.353488,0.0,0.0,0.0,0.0,0.0,0.0,0.0,0.0,0.0,,,,,,,,,,,,,,0.0963,0.1185,0.7407,0.0148,0.0,0.0074,1,,21465.0,,,,,0.7119,,,,,,,0.7143,,0.5394,,,,,,,,,,6.0,48.0508,,,36819
236,111762,2332819,23328,CET-Watsonville,Watsonville,CA,95076,1,1,36.931833,-121.767991,0.0,0.0,0.0,0.0,0.0,0.0,0.0,0.0,0.0,,,,,,,,,,,,,,0.0172,0.0086,0.9655,0.0,0.0,0.0086,1,,19092.0,,,,,0.8529,,,,,,,0.9474,,0.0984,,,,,,,,,,5.0,51.071,,,36819
237,111799,2332813,23328,CET-Salinas,Salinas,CA,93906,1,1,36.707333,-121.65236,0.0,0.0,0.0,0.0,0.0,0.0,0.0,0.0,0.0,,,,,,,,,,,,,,0.0,0.0,0.9877,0.0061,0.0061,0.0,1,,19827.0,,,,,0.7692,,,,,,,0.871,,0.1429,,,,,,,,,,4.0,51.0801,,,36819
238,111887,116100,1161,Cerritos College,Norwalk,CA,90650-6298,2,2,33.886874,-118.097337,0.0,0.0,0.0,0.0,0.0,1.0,0.0,0.0,0.0,,,,,,,,,,,,,,0.0817,0.0642,0.7002,0.0795,0.0027,0.0037,1,9395.0,,1404.0,10026.0,11165.0,,0.2969,,,,,,,0.7099,,0.0257,,,,,,,,,,,,,,36819
239,111896,1011100,10111,Cerro Coso Community College,Ridgecrest,CA,93555-9571,2,2,35.567525,-117.66767,0.0,0.0,0.0,0.0,0.0,1.0,0.0,0.0,0.0,,,,,,,,,,,,,,0.3543,0.0878,0.42,0.0411,0.0246,0.006,1,17346.0,,1382.0,9872.0,10756.0,,0.2892,,,,,,,0.5696,,0.0041,,,,,,,,,,,,,,36819
240,111920,116200,1162,Chabot College,Hayward,CA,94545,2,2,37.642458,-122.105636,0.0,0.0,0.0,0.0,1.0,1.0,0.0,0.0,0.0,,,,,,,,,,,,,,0.1462,0.0895,0.4114,0.2462,0.002,0.016,1,12377.0,,1150.0,8110.0,10893.0,,0.3439,,,,,,,0.7185,,0.0088,,,,,,,,,,,,,,36819
241,111939,116300,1163,Chaffey College,Rancho Cucamonga,CA,91737-3002,2,2,34.147663,-117.573932,0.0,0.0,0.0,0.0,0.0,1.0,0.0,0.0,0.0,,,,,,,,,,,,,,0.1429,0.0707,0.6546,0.0687,0.0019,0.0024,1,18264.0,,1180.0,8524.0,9812.0,,0.2819,,,,,,,0.6708,,0.0001,,,,,,,,,,,,,,36819
242,111948,116400,1164,Chapman University,Orange,CA,92866,3,4,33.79302,-117.852518,0.0,0.0,0.0,0.0,0.0,0.0,0.0,0.0,0.0,61.0,0.5826,590.0,670.0,580.0,680.0,,,630.0,630.0,,1275.0,,0.5154,0.0183,0.1702,0.1452,0.0011,0.0033,1,74336.0,,57214.0,57214.0,12108.0,0.8001,,0.7957,0.6667,0.7617,0.8759,,0.8333,,0.75,0.4807,,,,,,,,,2357.0,,,406306000.0,412064000.0,36819
243,111966,1036500,10365,Charles R Drew University of Medicine and Science,Los Angeles,CA,90059,2,4,33.925658,-118.242791,0.0,0.0,0.0,0.0,0.0,0.0,0.0,0.0,0.0,,0.25,,,,,,,,,,,,0.0418,0.3347,0.3054,0.1213,0.0,0.0,1,33171.0,,14002.0,14002.0,8315.0,0.0,,,,,,,,,0.5,0.6061,,,,,,,,,631.0,,,94266000.0,91406000.0,36819
244,112075,2070500,20705,Concordia University-Irvine,Irvine,CA,92612-3203,3,4,33.653665,-117.812305,0.0,0.0,0.0,0.0,0.0,0.0,0.0,0.0,0.0,68.0,0.7818,510.0,610.0,510.0,600.0,,,560.0,555.0,,1128.0,,0.4686,0.0382,0.2578,0.1051,0.0035,0.0059,1,53235.0,,38000.0,38000.0,7218.0,0.5909,,0.6526,0.375,0.5195,0.5172,1.0,1.0,,,0.5972,,,,,,,,,2367.0,,,30748483.0,35171761.0,36819
245,112084,1203100,12031,San Diego Christian College,Santee,CA,92071,3,4,32.842404,-116.978112,0.0,0.0,0.0,0.0,0.0,1.0,0.0,0.0,0.0,88.0,0.4967,450.0,550.0,450.0,548.0,,,500.0,499.0,,1016.0,,0.4143,0.1002,0.3474,0.0401,0.0067,0.0156,1,47755.0,,33312.0,33312.0,6436.0,0.55,,0.6271,0.3333,0.5556,1.0,,0.0,,0.5,0.6066,,,,,,,,,48.0,,,682348.0,719210.0,36819
246,112127,116500,1165,Church Divinity School of the Pacific,Berkeley,CA,94709-1211,4,4,37.876184,-122.261122,0.0,0.0,0.0,0.0,0.0,0.0,0.0,0.0,0.0,73.0,,,,,,,,,,,,,,,,,,,1,,,,,8083.0,,,,,,,,,,,,,,,,,,,,71.0,,,15078755.0,24236889.0,36819
247,112172,116600,1166,Citrus College,Glendora,CA,91741-1899,2,2,34.13537,-117.886469,0.0,0.0,0.0,0.0,0.0,1.0,0.0,0.0,0.0,,,,,,,,,,,,,,0.1504,0.0318,0.6596,0.0808,0.0023,0.0019,1,12322.0,,1194.0,8562.0,10263.0,,0.4072,,,,,,,0.7014,,0.0117,,,,,,,,,,,,7395776.0,7538272.0,36819
248,112181,2178700,21787,Citrus Heights Beauty College,Citrus Heights,CA,95610-1410,1,1,38.712951,-121.289529,0.0,0.0,0.0,0.0,0.0,0.0,0.0,0.0,0.0,,,,,,,,,,,,,,0.6296,0.0247,0.1975,0.0617,0.0123,0.037,1,,19131.0,,,,,0.8947,,,,,,,0.8621,,0.3789,,,,,,,,,,3.0,12.0401,,,36819
249,112190,450200,4502,City College of San Francisco,San Francisco,CA,94112-1898,1,2,37.725953,-122.451155,0.0,0.0,0.0,0.0,1.0,0.0,0.0,0.0,0.0,,,,,,,,,,,,,,0.2056,0.066,0.2654,0.3358,0.0024,0.009,1,14724.0,,1165.0,8317.0,10181.0,,0.3679,,,,,,,0.7016,,0.0048,,,,,,,,,,,,,,36819
250,112251,116900,1169,Claremont Graduate University,Claremont,CA,91711-6160,4,4,34.103585,-117.713703,0.0,0.0,0.0,0.0,0.0,0.0,0.0,0.0,0.0,,,,,,,,,,,,,,,,,,,,1,,,,,13756.0,,,,,,,,,,,,,,,,,,,,1949.0,,,186766435.0,174867061.0,36819
251,112260,117000,1170,Claremont McKenna College,Claremont,CA,91711-6400,3,4,34.102154,-117.711188,0.0,0.0,0.0,0.0,0.0,0.0,0.0,0.0,0.0,,0.1334,660.0,730.0,670.0,770.0,,,695.0,720.0,,1436.0,,0.3788,0.0499,0.1704,0.1347,0.0016,0.0016,1,76475.0,,56475.0,56475.0,14819.0,0.9228,,0.8963,0.9286,0.9048,1.0,1.0,1.0,,,0.2055,,,,,,,,,2.0,,,865475000.0,952269000.0,36819
252,112288,2497300,24973,Milan Institute-Visalia,Visalia,CA,93277,1,1,36.27164,-119.312151,0.0,0.0,0.0,0.0,0.0,0.0,0.0,0.0,0.0,,,,,,,,,,,,,,0.1279,0.0444,0.7285,0.0157,0.0209,0.0131,1,,24353.0,,,,,0.701,,,,,,,0.8847,,0.6845,,,,,,,,,,7.0,12.0401,,,36819
253,112367,2309500,23095,Clovis Adult Education,Clovis,CA,93611,1,1,36.834459,-119.690369,0.0,0.0,0.0,0.0,0.0,0.0,0.0,0.0,0.0,,,,,,,,,,,,,,0.1657,0.0651,0.4951,0.1736,0.0217,0.0316,1,,19918.0,,,,,0.7545,,,,,,,0.8,,0.0,,,,,,,,,,6.0,51.3901,,,36819
254,112385,2063500,20635,Coastline Community College,Fountain Valley,CA,92708-2597,2,2,33.715634,-117.929143,0.0,0.0,0.0,0.0,1.0,1.0,0.0,0.0,0.0,,,,,,,,,,,,,,0.2885,0.0758,0.3058,0.2119,0.0048,0.0046,1,16142.0,,1160.0,7256.0,10737.0,,0.3117,,,,,,,0.5207,,0.0158,,,,,,,,,,,,6805860.0,2901905.0,36819
255,112394,117700,1177,University of Silicon Valley,San Jose,CA,95134,3,4,37.414049,-121.94087,0.0,0.0,0.0,0.0,0.0,0.0,0.0,0.0,0.0,,0.4194,,,,,,,,,,,,0.2824,0.0725,0.2353,0.1961,0.0078,0.0059,1,32382.0,,21784.0,21784.0,7739.0,0.4571,,0.4318,0.4286,0.4595,0.5556,,0.0,,0.3,0.6753,,,,,,,,,10.0,,,,,36819
256,112455,3577300,35773,Coba Academy,Anaheim,CA,92801,1,1,33.841141,-117.943108,0.0,0.0,0.0,0.0,0.0,0.0,0.0,0.0,0.0,,,,,,,,,,,,,,0.0581,0.0465,0.6977,0.093,0.0233,0.0116,1,,19323.0,,,,,0.678,,,,,,,0.8889,,0.6176,,,,,,,,,,3.0,12.0409,,,36819
257,112525,2482700,24827,Western University of Health Sciences,Pomona,CA,91766-1854,4,4,34.058092,-117.747732,0.0,0.0,0.0,0.0,0.0,0.0,0.0,0.0,0.0,,,,,,,,,,,,,,,,,,,,1,,,,,10545.0,,,,,,,,,,,,,,,,,,,,3813.0,,,48347509.0,50437222.0,36819
258,112561,770700,7707,Columbia College,Sonora,CA,95370,2,2,38.030367,-120.388385,0.0,0.0,0.0,0.0,0.0,0.0,0.0,0.0,0.0,,,,,,,,,,,,,,0.6783,0.0293,0.2255,0.0223,0.013,0.0054,1,14989.0,,1270.0,7538.0,10026.0,,0.3554,,,,,,,0.534,,0.0,,,,,,,,,,,,2066432.0,2067432.0,36819
259,112570,2110200,21102,Columbia College Hollywood,Tarzana,CA,91356-1411,3,3,34.17972,-118.538793,0.0,0.0,0.0,0.0,0.0,0.0,0.0,0.0,0.0,,,,,,,,,,,,,,0.3763,0.1934,0.2342,0.0487,0.0145,0.0053,1,35331.0,,26175.0,26175.0,6223.0,0.5824,,0.6598,0.5238,0.4211,0.5,0.0,,,0.25,0.7737,,,,,,,,,,,,,,36819
260,112686,4281700,42817,Compton College,Compton,CA,90221-5393,2,2,33.878226,-118.209463,0.0,0.0,0.0,0.0,0.0,1.0,0.0,0.0,0.0,,,,,,,,,,,,,,0.0164,0.2704,0.6066,0.0384,0.0022,0.0057,1,16383.0,,1142.0,8102.0,10106.0,,0.1769,,,,,,,0.4202,,0.0127,,,,,,,,,,,,,,36819
261,112826,119000,1190,Contra Costa College,San Pablo,CA,94806,2,2,37.969381,-122.337377,0.0,0.0,0.0,0.0,1.0,1.0,0.0,0.0,0.0,,,,,,,,,,,,,,0.114,0.1313,0.4502,0.1811,0.001,0.0062,1,13667.0,,1312.0,8328.0,9687.0,,0.2125,,,,,,,0.6524,,0.0142,,,,,,,,,,,,7509893.0,8505846.0,36819
262,113096,753600,7536,Cosumnes River College,Sacramento,CA,95823-5799,2,2,38.45295,-121.423108,0.0,0.0,0.0,0.0,1.0,1.0,0.0,0.0,0.0,,,,,,,,,,,,,,0.2327,0.0847,0.2787,0.2751,0.0046,0.0144,1,11035.0,,1288.0,9760.0,8776.0,,0.2832,,,,,,,0.7037,,0.0281,,,,,,,,,,,,,,36819
263,113111,927200,9272,Crafton Hills College,Yucaipa,CA,92339-1799,1,2,34.039178,-117.101173,0.0,0.0,0.0,0.0,0.0,0.0,0.0,0.0,0.0,,,,,,,,,,,,,,0.3239,0.0364,0.4994,0.0652,0.0025,0.0025,1,24369.0,,1178.0,8498.0,10312.0,,0.3159,,,,,,,0.6677,,0.0,,,,,,,,,,,,,,36819
264,113193,119200,1192,Cuesta College,San Luis Obispo,CA,93403-8106,2,2,35.331276,-120.742235,0.0,0.0,0.0,0.0,0.0,1.0,0.0,0.0,0.0,,,,,,,,,,,,,,0.524,0.0365,0.3153,0.0339,0.004,0.0029,1,18498.0,,1338.0,8898.0,9974.0,,0.3821,,,,,,,0.6951,,0.0299,,,,,,,,,,,,29883123.0,30522712.0,36819
265,113218,2111300,21113,Cuyamaca College,El Cajon,CA,92019,2,2,32.744954,-116.943507,0.0,0.0,0.0,0.0,0.0,1.0,0.0,0.0,0.0,,,,,,,,,,,,,,0.492,0.0458,0.3164,0.0516,0.0058,0.0045,1,12722.0,,1340.0,8564.0,7078.0,,0.3103,,,,,,,0.7121,,0.0055,,,,,,,,,,,,319008.0,429198.0,36819
266,113236,119300,1193,Cypress College,Cypress,CA,90630-5897,1,3,33.82833,-118.025143,0.0,0.0,0.0,0.0,1.0,1.0,0.0,0.0,0.0,,,,,,,,,,,,,,0.1465,0.0378,0.5001,0.2323,0.0019,0.004,1,13711.0,,1146.0,8898.0,8581.0,0.304,,0.3556,0.2727,0.2017,0.4884,0.0,0.25,,,0.0149,,,,,,,,,,,,,,36819
267,113333,448000,4480,De Anza College,Cupertino,CA,95014,2,2,37.319914,-122.045783,0.0,0.0,0.0,0.0,1.0,0.0,0.0,0.0,0.0,,,,,,,,,,,,,,0.1744,0.0275,0.2752,0.3786,0.0014,0.0053,1,12838.0,,1561.0,10246.0,9590.0,,0.6508,,,,,,,0.772,,0.0212,,,,,,,,,,,,13373090.0,13598374.0,36819
268,113449,3964400,39644,International School of Beauty Inc,Palm Desert,CA,92260-2740,1,1,33.729555,-116.403928,0.0,0.0,0.0,0.0,0.0,0.0,0.0,0.0,0.0,,,,,,,,,,,,,,0.2927,0.0366,0.5793,0.061,0.0061,0.0,1,,18140.0,,,,,0.8023,,,,,,,0.9259,,0.4799,,,,,,,,,,6.0,12.0401,,,36819
269,113537,3025600,30256,Dell'Arte International School of Physical Theatre,Blue Lake,CA,95525-0816,1,4,40.880924,-123.988808,0.0,0.0,0.0,0.0,0.0,0.0,0.0,0.0,0.0,,,,,,,,,,,,,,0.0,0.0,0.0,0.0,0.0,0.0,1,24217.0,,13400.0,13400.0,2839.0,,,,,,,,,,,0.4444,,,,,,,,,5.0,,,,,36819
270,113573,118200,1182,College of the Desert,Palm Desert,CA,92260,2,2,33.732108,-116.388271,0.0,0.0,0.0,0.0,0.0,0.0,0.0,0.0,0.0,,,,,,,,,,,,,,0.156,0.0239,0.7384,0.0299,0.0034,0.0007,1,19432.0,,1383.0,8943.0,10385.0,,0.2555,,,,,,,0.6845,,0.0,,,,,,,,,,,,24246663.0,24448136.0,36819
271,113582,2298000,22980,Design Institute of San Diego,San Diego,CA,92121,3,3,32.880926,-117.167374,0.0,0.0,0.0,0.0,0.0,0.0,0.0,0.0,0.0,,1.0,,,,,,,,,,,,0.4758,0.0726,0.25,0.0806,0.0323,0.0081,1,42928.0,,25649.0,25649.0,6667.0,0.3333,,0.0,,0.0,1.0,,,,,0.6777,,,,,,,,,6.0,,,,,36819
272,113634,119100,1191,Diablo Valley College,Pleasant Hill,CA,94523,2,2,37.968516,-122.073142,0.0,0.0,0.0,0.0,0.0,1.0,0.0,0.0,0.0,,,,,,,,,,,,,,0.3064,0.0486,0.2717,0.1684,0.0014,0.0041,1,13754.0,,1312.0,8328.0,9886.0,,0.4785,,,,,,,0.7448,,0.0098,,,,,,,,,,,,7887576.0,7886250.0,36819
273,113698,119600,1196,Dominican University of California,San Rafael,CA,94901-2298,3,4,37.981279,-122.512051,0.0,0.0,0.0,0.0,0.0,0.0,0.0,0.0,0.0,,0.8574,540.0,620.0,530.0,630.0,,,580.0,580.0,,1162.0,,0.2729,0.0495,0.2802,0.2977,0.0015,0.0051,1,67366.0,,47910.0,47910.0,9100.0,0.7433,,0.7436,0.6842,0.6667,0.8442,1.0,0.5,,0.0,0.5301,,,,,,,,,458.0,,,34649290.0,30877436.0,36819
274,113704,129600,1296,Dominican School of Philosophy & Theology,Berkeley,CA,94708-1816,4,4,37.881099,-122.264612,0.0,0.0,0.0,0.0,0.0,0.0,0.0,0.0,0.0,30.0,,,,,,,,,,,,,,,,,,,1,,,,,3068.0,,,,,,,,,,,,,,,,,,,,72.0,,,7138667.0,7285913.0,36819
275,113856,2226000,22260,East Los Angeles College,Monterey Park,CA,91754-6099,1,2,34.040531,-118.148785,0.0,0.0,0.0,0.0,0.0,1.0,0.0,0.0,0.0,,,,,,,,,,,,,,0.0895,0.0567,0.6411,0.0835,0.002,0.0018,1,18405.0,,1238.0,8570.0,10240.0,,0.3274,,,,,,,0.6289,,0.0046,,,,,,,,,,,,,,36819
276,113980,119700,1197,El Camino Community College District,Torrance,CA,90506,2,2,33.885229,-118.329913,0.0,0.0,0.0,0.0,1.0,1.0,0.0,0.0,0.0,,,,,,,,,,,,,,0.1046,0.1314,0.4326,0.1096,0.0022,0.0043,1,18895.0,,1144.0,7600.0,9930.0,,0.3663,,,,,,,0.7052,,0.0045,,,,,,,,,,,,,,36819
277,114114,2609000,26090,Emperor's College of Traditional Oriental Medicine,Santa Monica,CA,90403,4,4,34.030438,-118.485119,0.0,0.0,0.0,0.0,0.0,0.0,0.0,0.0,0.0,,,,,,,,,,,,,,,,,,,,1,,,,,7812.0,,,,,,,,,,,,,,,,,,,,228.0,,,,,36819
278,114123,903200,9032,Empire College,Santa Rosa,CA,95403-2126,1,4,38.468052,-122.729337,0.0,0.0,0.0,0.0,0.0,0.0,0.0,0.0,0.0,,,,,,,,,,,,,,0.3554,0.0181,0.4639,0.0181,0.0241,0.0301,1,,27470.0,,,3941.0,0.5906,,0.6034,0.75,0.5333,1.0,1.0,,,,0.491,,,,,,,,,75.0,20.0,51.0801,,,36819
279,114266,1245200,12452,Evergreen Valley College,San Jose,CA,95135-1598,2,2,37.30167,-121.76561,0.0,0.0,0.0,0.0,1.0,1.0,0.0,0.0,0.0,,,,,,,,,,,,,,0.0659,0.0224,0.4495,0.3885,0.0024,0.0041,1,18639.0,,1448.0,9128.0,13205.0,,0.2962,,,,,,,0.7739,,0.0045,,,,,,,,,,,,,,36819
280,114354,1111200,11112,FIDM-Fashion Institute of Design & Merchandising-Los Angeles,Los Angeles,CA,90015-1421,2,4,34.044209,-118.25993,0.0,0.0,0.0,0.0,0.0,0.0,0.0,0.0,0.0,,0.3864,,,,,,,,,,,,0.3259,0.085,0.2301,0.1132,0.0108,0.0119,1,51281.0,,32645.0,32645.0,4159.0,0.725,,0.7478,0.7333,0.6981,0.7246,0.6667,0.8333,,1.0,0.4406,,,,,,,,,39.0,,,,,36819
281,114390,1111202,11112,FIDM-Fashion Institute of Design & Merchandising-San Francisco,San Francisco,CA,94108-5805,2,3,37.786353,-122.406651,0.0,0.0,0.0,0.0,0.0,0.0,0.0,0.0,0.0,,0.322,,,,,,,,,,,,0.2743,0.0796,0.2478,0.2389,0.0,0.0531,0,49998.0,,32645.0,32645.0,,0.6852,,0.7143,0.6,0.6667,0.6667,,1.0,,,0.4815,,,,,,,,,,,,,,36819
282,114433,859700,8597,Feather River Community College District,Quincy,CA,95971-9124,2,3,39.953101,-120.973067,0.0,0.0,0.0,0.0,0.0,0.0,0.0,0.0,0.0,,,,,,,,,,,,,,0.4493,0.1577,0.2472,0.0426,0.0307,0.0162,1,17336.0,,1465.0,9865.0,10208.0,0.295,,0.3053,0.1489,0.2105,0.4,0.4,0.5,,,0.0701,,,,,,,,,,,,48205.0,48225.0,36819
283,114460,725300,7253,Federico Beauty Institute,Sacramento,CA,95834,1,1,38.64883,-121.497761,0.0,0.0,0.0,0.0,0.0,0.0,0.0,0.0,0.0,,,,,,,,,,,,,,0.3597,0.1089,0.3696,0.0957,0.0099,0.0,1,,21754.0,,,,,0.8,,,,,,,0.7333,,0.5774,,,,,,,,,,3.0,12.0401,,,36819
284,114549,2096100,20961,Fielding Graduate University,Santa Barbara,CA,93105-3538,4,4,34.42941,-119.717161,0.0,0.0,0.0,0.0,0.0,0.0,0.0,0.0,0.0,,,,,,,,,,,,,,,,,,,,1,,,,,6685.0,,,,,,,,,,,,,,,,,,,,1071.0,,,6642253.0,6983837.0,36819
285,114585,3131300,31313,Five Branches University,Santa Cruz,CA,95062,4,4,36.964348,-121.998245,0.0,0.0,0.0,0.0,0.0,0.0,0.0,0.0,0.0,,,,,,,,,,,,,,,,,,,,1,,,,,3000.0,,,,,,,,,,,,,,,,,,,,349.0,,,,,36819
286,114637,720900,7209,Redondo Beach Beauty College,Torrance,CA,90505,1,1,33.873098,-118.372137,0.0,0.0,0.0,0.0,0.0,0.0,0.0,0.0,0.0,,,,,,,,,,,,,,0.1343,0.1045,0.1791,0.5522,0.0,0.0,1,,,,,,,0.9231,,,,,,,0.96,,0.1615,,,,,,,,,,6.0,12.0401,,,36819
287,114716,119900,1199,Foothill College,Los Altos Hills,CA,94022,2,3,37.361655,-122.127964,0.0,0.0,0.0,0.0,0.0,0.0,0.0,0.0,0.0,,,,,,,,,,,,,,0.3015,0.0309,0.299,0.2435,0.0022,0.0098,1,13752.0,,1563.0,10248.0,9897.0,0.5899,,0.52,0.2593,0.4044,0.6808,,0.0,,,0.0195,,,,,,,,,,,,10006438.0,9567511.0,36819
288,114734,1179200,11792,Franciscan School of Theology,San Diego,CA,92110,4,4,32.770816,-117.192073,0.0,0.0,0.0,0.0,0.0,0.0,0.0,0.0,0.0,30.0,,,,,,,,,,,,,,,,,,,1,,,,,5680.0,,,,,,,,,,,,,,,,,,,,57.0,,,5211972.0,5211973.0,36819
289,114761,2230900,22309,Fredrick and Charles Beauty College,Eureka,CA,95501,1,1,40.798885,-124.164986,0.0,0.0,0.0,0.0,0.0,0.0,0.0,0.0,0.0,,,,,,,,,,,,,,0.6226,0.0189,0.0189,0.0943,0.1887,0.0377,1,,22424.0,,,,,0.8571,,,,,,,0.7778,,0.0,,,,,,,,,,5.0,12.0401,,,36819
290,114789,130700,1307,Fresno City College,Fresno,CA,93741,2,2,36.768164,-119.796096,0.0,0.0,0.0,0.0,1.0,1.0,0.0,0.0,0.0,,,,,,,,,,,,,,0.1967,0.0449,0.5872,0.123,0.0051,0.0021,1,10995.0,,1304.0,8264.0,9661.0,,0.2338,,,,,,,0.5902,,0.0055,,,,,,,,,,,,6480266.0,7085003.0,36819
291,114813,125300,1253,Fresno Pacific University,Fresno,CA,93702-4709,3,4,36.726831,-119.735199,0.0,0.0,0.0,0.0,0.0,1.0,0.0,0.0,0.0,43.0,0.6694,470.0,560.0,460.0,550.0,,,515.0,505.0,,1019.0,,0.2416,0.0542,0.5869,0.0446,0.0077,0.0022,1,43317.0,,33452.0,33452.0,7538.0,0.6736,,0.726,0.3333,0.6707,0.4444,1.0,0.6667,,1.0,0.696,,,,,,,,,1284.0,,,16932104.0,17569795.0,36819
292,114840,120000,1200,Fuller Theological Seminary,Pasadena,CA,91182,4,4,34.14778,-118.140261,0.0,0.0,0.0,0.0,0.0,0.0,0.0,0.0,0.0,78.0,,,,,,,,,,,,,,,,,,,1,,,,,7909.0,,,,,,,,,,,,,,,,,,,,2277.0,,,169573000.0,140541000.0,36819
293,114859,120100,1201,Fullerton College,Fullerton,CA,92832-2095,2,2,33.875514,-117.918255,0.0,0.0,0.0,0.0,1.0,1.0,0.0,0.0,0.0,,,,,,,,,,,,,,0.1644,0.0277,0.5878,0.1399,0.0018,0.002,1,14803.0,,1154.0,7514.0,9747.0,,0.3283,,,,,,,0.6938,,0.0257,,,,,,,,,,,,,,36819
294,114938,120200,1202,Gavilan College,Gilroy,CA,95020,1,2,36.972627,-121.569842,0.0,0.0,0.0,0.0,0.0,1.0,0.0,0.0,0.0,,,,,,,,,,,,,,0.246,0.019,0.6098,0.0603,0.0029,0.0031,1,12401.0,,1166.0,7214.0,10915.0,,0.3623,,,,,,,0.6487,,0.0014,,,,,,,,,,,,,,36819
295,114947,2231900,22319,Gemological Institute of America-Carlsbad,Carlsbad,CA,92008,1,1,33.131313,-117.318765,0.0,0.0,0.0,0.0,0.0,0.0,0.0,0.0,0.0,,,,,,,,,,,,,,0.5172,0.0,0.1034,0.1379,0.0345,0.0,1,,38254.0,,,,,0.8583,,,,,,,,,0.1466,,,,,,,,,,7.0,50.0713,,,36819
296,115001,120300,1203,Glendale Community College,Glendale,CA,91208-2894,2,2,34.16745,-118.227666,0.0,0.0,0.0,0.0,0.0,1.0,0.0,0.0,0.0,,,,,,,,,,,,,,0.4991,0.0252,0.2963,0.0817,0.0009,0.0015,1,11366.0,,1175.0,7535.0,10070.0,,0.315,,,,,,,0.6916,,0.0198,,,,,,,,,,,,13765882.0,14982245.0,36819
297,115010,2338500,23385,Glendale Career College,Glendale,CA,91203,1,2,34.149771,-118.254719,0.0,0.0,0.0,0.0,0.0,0.0,0.0,0.0,0.0,,,,,,,,,,,,,,0.2089,0.0427,0.4636,0.1756,0.0063,0.0095,1,,42147.0,,,6635.0,0.6609,,0.6429,0.5625,0.6797,0.7143,,,,,0.7716,,,,,,,,,,9.0,51.3801,,,36819
298,115083,120500,1205,Golden Gate University,San Francisco,CA,94105-2968,3,4,37.789374,-122.398969,0.0,0.0,0.0,0.0,0.0,0.0,0.0,0.0,0.0,,,,,,,,,,,,,,0.3174,0.1843,0.2287,0.1297,0.0171,0.0137,1,,,,,9661.0,,,,,,,,,,,0.2358,,,,,,,,,1877.0,,,47681987.0,41389065.0,36819
299,115126,120600,1206,Golden West College,Huntington Beach,CA,92647-2710,2,2,33.732531,-118.002568,0.0,0.0,0.0,0.0,0.0,1.0,0.0,0.0,0.0,,,,,,,,,,,,,,0.2655,0.0194,0.3406,0.2773,0.0018,0.0045,1,11401.0,,1186.0,8386.0,11114.0,,0.4128,,,,,,,0.6885,,0.018,,,,,,,,,,,,11259444.0,9310330.0,36819
300,115214,120700,1207,Graduate Theological Union,Berkeley,CA,94709,4,4,37.87554,-122.261847,0.0,0.0,0.0,0.0,0.0,0.0,0.0,0.0,0.0,,,,,,,,,,,,,,,,,,,,1,,,,,6806.0,,,,,,,,,,,,,,,,,,,,213.0,,,53300544.0,48293169.0,36819
301,115296,120800,1208,Grossmont College,El Cajon,CA,92020-1799,2,2,32.815246,-117.006277,0.0,0.0,0.0,0.0,0.0,1.0,0.0,0.0,0.0,,,,,,,,,,,,,,0.3921,0.0504,0.3675,0.0698,0.0033,0.0038,1,11511.0,,1332.0,8556.0,7682.0,,0.3125,,,,,,,0.684,,0.0136,,,,,,,,,,,,706912.0,833671.0,36819
302,115357,2211000,22110,Salon Success Academy-Riverside,Riverside,CA,92506,1,1,33.943149,-117.391024,0.0,0.0,0.0,0.0,0.0,0.0,0.0,0.0,0.0,,,,,,,,,,,,,,0.104,0.104,0.736,0.04,0.0,0.0,1,,18203.0,,,,,0.6923,,,,,,,0.6875,,0.6503,,,,,,,,,,3.0,12.0401,,,36819
303,115393,120900,1209,Hartnell College,Salinas,CA,93901,2,2,36.675091,-121.666054,0.0,0.0,0.0,0.0,0.0,1.0,0.0,0.0,0.0,,,,,,,,,,,,,,0.0702,0.0218,0.7181,0.043,0.0036,0.0017,1,13195.0,,1400.0,8960.0,9022.0,,0.287,,,,,,,0.6807,,0.0018,,,,,,,,,,,,10042425.0,10005903.0,36819
304,115409,117100,1171,Harvey Mudd College,Claremont,CA,91711,3,3,34.106515,-117.709837,0.0,0.0,0.0,0.0,0.0,0.0,0.0,0.0,0.0,,0.1796,720.0,770.0,770.0,800.0,,,745.0,785.0,,1534.0,,0.2769,0.0411,0.2031,0.2297,0.0024,0.0036,1,79539.0,,58660.0,58660.0,14391.0,0.9271,,0.9178,0.4,0.95,0.975,1.0,,,,0.3728,,,,,,,,,,,,328567827.0,319714177.0,36819
305,115658,2285100,22851,Hilltop Beauty School,Daly City,CA,94014,1,1,37.705502,-122.461467,0.0,0.0,0.0,0.0,0.0,0.0,0.0,0.0,0.0,,,,,,,,,,,,,,0.0288,0.0288,0.625,0.25,0.0192,0.0,1,,21809.0,,,,,0.625,,,,,,,0.75,,0.0,,,,,,,,,,3.0,12.0401,,,36819
306,115728,118300,1183,Holy Names University,Oakland,CA,94619-1699,3,4,37.802276,-122.187804,0.0,0.0,0.0,0.0,1.0,1.0,0.0,0.0,0.0,30.0,0.8912,,,,,,,,,,,,0.1522,0.1693,0.377,0.0996,0.0043,0.01,1,57486.0,,40904.0,40904.0,8907.0,0.3864,,0.2632,0.3846,0.4091,0.6,,0.5,,1.0,0.6457,,,,,,,,,305.0,,,54171145.0,54619996.0,36819
307,115746,3126800,31268,Pacifica Graduate Institute,Carpinteria,CA,93013,4,4,34.420881,-119.580414,0.0,0.0,0.0,0.0,0.0,0.0,0.0,0.0,0.0,,,,,,,,,,,,,,,,,,,,1,,,,,6634.0,,,,,,,,,,,,,,,,,,,,856.0,,,,,36819
308,115755,114900,1149,Humboldt State University,Arcata,CA,95521-8299,3,4,40.877481,-124.078293,0.0,0.0,0.0,0.0,0.0,1.0,0.0,0.0,0.0,,0.8514,490.0,610.0,480.0,580.0,,,550.0,530.0,,1081.0,,0.4417,0.0364,0.3427,0.0292,0.0134,0.003,1,24991.0,,7858.0,19738.0,9822.0,0.4949,,0.5404,0.3333,0.4524,0.6078,0.4,0.75,,0.625,0.4827,,,,,,,,,604.0,,,31289046.0,32587726.0,36819
309,115773,121200,1212,Humphreys University-Stockton and Modesto Campuses,Stockton,CA,95207-3896,3,4,38.011489,-121.316918,0.0,0.0,0.0,0.0,1.0,1.0,0.0,0.0,0.0,,,,,,,,,,,,,,0.2168,0.0752,0.3363,0.0885,0.0,0.031,1,21249.0,,14580.0,14580.0,6082.0,0.5667,,0.6667,0.2857,0.6923,0.5,,,,,0.5275,,,,,,,,,174.0,,,169248.0,171384.0,36819
310,115861,121400,1214,Imperial Valley College,Imperial,CA,92251-0158,2,2,32.827209,-115.503563,0.0,0.0,0.0,0.0,0.0,1.0,0.0,0.0,0.0,,,,,,,,,,,,,,0.0398,0.0128,0.9113,0.0076,0.0006,0.0005,1,10240.0,,1126.0,6046.0,9775.0,,0.3685,,,,,,,0.724,,0.0,,,,,,,,,,,,2016712.0,1953884.0,36819
311,115931,2128300,21283,Institute for Business and Technology,Santa Clara,CA,95051-1303,1,2,37.368642,-121.969541,0.0,0.0,0.0,0.0,0.0,0.0,0.0,0.0,0.0,,,,,,,,,,,,,,0.1209,0.0587,0.5648,0.1019,0.0017,0.0173,1,,29905.0,,,5714.0,,0.7909,,,,,,,0.8356,,0.3493,,,,,,,,,,8.0,46.0302,,,36819
312,116226,2520300,25203,Interior Designers Institute,Newport Beach,CA,92660,2,4,33.641393,-117.865722,0.0,0.0,0.0,0.0,0.0,0.0,0.0,0.0,0.0,,,,,,,,,,,,,,0.5683,0.0288,0.1439,0.1367,0.0,0.0,1,,,20250.0,20250.0,9361.0,0.5,,0.6667,,0.0,1.0,,,,,0.3094,,,,,,,,,5.0,,,,,36819
313,116350,2255400,22554,International School of Cosmetology,Los Angeles,CA,90036,1,1,34.080053,-118.361176,0.0,0.0,0.0,0.0,0.0,0.0,0.0,0.0,0.0,,,,,,,,,,,,,,0.3741,0.0935,0.3094,0.1295,0.0288,0.0072,1,,25955.0,,,,,0.6481,,,,,,,0.4706,,0.6034,,,,,,,,,,1.0,12.0401,,,36819
314,116439,2539500,25395,Irvine Valley College,Irvine,CA,92618-0301,2,2,33.675381,-117.777539,0.0,0.0,0.0,0.0,1.0,0.0,0.0,0.0,0.0,,,,,,,,,,,,,,0.3128,0.0199,0.2323,0.2802,0.0013,0.0026,1,11978.0,,1146.0,8346.0,11418.0,,0.5144,,,,,,,0.7968,,0.0077,,,,,,,,,,,,1756682.0,2010268.0,36819
315,116563,1202600,12026,Bellus Academy-El Cajon,El Cajon,CA,92021,1,1,32.794072,-116.94627,0.0,0.0,0.0,0.0,0.0,0.0,0.0,0.0,0.0,,,,,,,,,,,,,,0.2935,0.1522,0.375,0.0598,0.0109,0.0054,1,,29159.0,,,,,0.7647,,,,,,,0.7619,,0.484,,,,,,,,,,7.0,12.0414,,,36819
316,116846,274100,2741,American Jewish University,Los Angeles,CA,90077-1519,3,4,34.128153,-118.471706,0.0,0.0,0.0,0.0,0.0,0.0,0.0,0.0,0.0,80.0,,,,,,,,,,,,,0.6486,0.0,0.027,0.027,0.0,0.0,1,,,32404.0,32404.0,10019.0,0.3333,,,,,,0.0,,,,0.4545,,,,,,,,,56.0,,,22521049.0,22351878.0,36819
317,117052,130800,1308,Reedley College,Reedley,CA,93654,1,2,36.605428,-119.458555,0.0,0.0,0.0,0.0,0.0,1.0,0.0,0.0,0.0,,,,,,,,,,,,,,0.1652,0.0225,0.7354,0.0452,0.0032,0.0011,1,12717.0,,1304.0,8264.0,9496.0,,0.2821,,,,,,,0.4098,,0.0058,,,,,,,,,,,,1725050.0,1869952.0,36819
318,117104,2270600,22706,Life Pacific University,San Dimas,CA,91773-3298,3,4,34.098705,-117.829388,0.0,0.0,0.0,0.0,0.0,1.0,0.0,0.0,0.0,79.0,0.931,470.0,550.0,460.0,535.0,,,510.0,498.0,,1015.0,,0.3737,0.039,0.4209,0.0329,0.0123,0.0062,1,29158.0,,17434.0,17434.0,6678.0,0.4896,,0.6757,0.3333,0.3409,0.3333,,0.5,,0.0,0.658,,,,,,,,,114.0,,,3579106.0,4030013.0,36819
319,117140,121600,1216,University of La Verne,La Verne,CA,91750-4401,3,4,34.100855,-117.773262,0.0,0.0,0.0,0.0,0.0,1.0,0.0,0.0,0.0,,0.7625,480.0,580.0,480.0,570.0,,,530.0,525.0,,1054.0,,0.1846,0.0665,0.5838,0.0493,0.0046,0.0051,1,60759.0,,45850.0,45850.0,9463.0,0.6607,,0.6154,0.6585,0.7046,0.6875,1.0,0.6,,0.2,0.6259,,,,,,,,,2863.0,,,109371185.0,109253175.0,36819
320,117168,2330500,23305,Laguna College of Art and Design,Laguna Beach,CA,92651,3,4,33.561448,-117.772564,0.0,0.0,0.0,0.0,1.0,0.0,0.0,0.0,0.0,,0.8292,,,,,,,,,,,,0.4809,0.0219,0.2145,0.153,0.0041,0.0055,1,50805.0,,32600.0,32600.0,9318.0,0.6716,,0.6176,0.5,0.8182,0.6364,,,,0.5,0.5434,,,,,,,,,50.0,,,2961235.0,3052027.0,36819
321,117195,1290700,12907,Lake Tahoe Community College,South Lake Tahoe,CA,96150,2,2,38.926797,-119.972574,0.0,0.0,0.0,0.0,0.0,1.0,0.0,0.0,0.0,,,,,,,,,,,,,,0.4184,0.0689,0.3245,0.0792,0.0098,0.0054,1,10947.0,,1131.0,8079.0,8816.0,,0.3478,,,,,,,0.4063,,0.0116,,,,,,,,,,,,968137.0,3038778.0,36819
322,117238,1301000,13010,Lancaster Beauty School,Lancaster,CA,93534,1,1,34.694914,-118.147547,0.0,0.0,0.0,0.0,0.0,0.0,0.0,0.0,0.0,,,,,,,,,,,,,,0.0,0.0,0.0,0.0,0.0,0.0,1,,18035.0,,,,,0.7612,,,,,,,0.8889,,0.4677,,,,,,,,,,6.0,12.0401,,,36819
323,117247,126600,1266,Laney College,Oakland,CA,94607,2,2,37.797257,-122.26283,0.0,0.0,0.0,0.0,1.0,0.0,0.0,0.0,0.0,,,,,,,,,,,,,,0.1707,0.1821,0.2327,0.2503,0.002,0.0061,1,19375.0,,1167.0,7527.0,9439.0,,0.2453,,,,,,,0.5299,,0.0089,,,,,,,,,,,,,,36819
324,117274,121700,1217,Lassen Community College,Susanville,CA,96130,2,2,40.432053,-120.633271,0.0,0.0,0.0,0.0,0.0,1.0,0.0,0.0,0.0,,,,,,,,,,,,,,0.3817,0.1612,0.3002,0.0482,0.0235,0.0099,1,15778.0,,1127.0,7847.0,8384.0,,0.3155,,,,,,,0.5556,,0.0218,,,,,,,,,,,,170000.0,66654.0,36819
325,117283,4284300,42843,Latin American Bible Institute,La Puente,CA,91746-3099,2,3,34.030992,-117.989601,0.0,0.0,0.0,0.0,0.0,0.0,0.0,0.0,0.0,27.0,0.7273,,,,,,,,,,,,0.0,0.0167,0.9667,0.0,0.0167,0.0,1,,,7200.0,7200.0,,0.36,,,,0.36,,,,,0.0,0.0,,,,,,,,,,,,18037.0,48197.0,36819
326,117520,2228500,22285,Life Chiropractic College West,Hayward,CA,94545-2800,4,4,37.638099,-122.117619,0.0,0.0,0.0,0.0,0.0,0.0,0.0,0.0,0.0,,,,,,,,,,,,,,,,,,,,1,,,,,8184.0,,,,,,,,,,,,,,,,,,,,598.0,,,,,36819
327,117557,697500,6975,Lincoln University,Oakland,CA,94612-2801,3,4,37.804788,-122.269745,0.0,0.0,0.0,0.0,0.0,0.0,0.0,0.0,0.0,,,,,,,,,,,,,,0.1364,0.0795,0.0455,0.1705,0.0,0.0,0,,,11390.0,11390.0,6828.0,0.8,,,,,,,,,,0.268,,,,,,,,,283.0,,,16726.0,16726.0,36819
328,117575,3332300,33323,Southern California Seminary,El Cajon,CA,92019-1108,3,4,32.799614,-116.905461,0.0,0.0,0.0,0.0,0.0,0.0,0.0,0.0,0.0,54.0,,,,,,,,,,,,,0.48,0.14,0.24,0.04,0.0,0.02,1,,,16884.0,16884.0,4934.0,0.0,,0.0,,,,,,,,0.4186,,,,,,,,,124.0,,,115261.0,115850.0,36819
329,117627,121500,1215,La Sierra University,Riverside,CA,92505-8247,3,4,33.910704,-117.500054,0.0,0.0,0.0,0.0,1.0,1.0,0.0,0.0,0.0,95.0,0.5697,470.0,590.0,470.0,580.0,,,530.0,525.0,,1048.0,,0.1094,0.0746,0.5055,0.1642,0.0014,0.0082,1,45629.0,,35208.0,35208.0,8227.0,0.5246,,0.7647,0.3158,0.4975,0.5077,0.0,0.0,,1.0,0.6481,,,,,,,,,416.0,,,20118049.0,20797171.0,36819
330,117636,121800,1218,Loma Linda University,Loma Linda,CA,92350,3,4,34.051241,-117.260605,0.0,0.0,0.0,0.0,1.0,1.0,0.0,0.0,0.0,95.0,,,,,,,,,,,,,0.2448,0.0503,0.3722,0.2419,0.001,0.0049,1,,,,,8749.0,,,,,,,,,,,0.6267,,,,,,,,,3300.0,,,407764000.0,428977000.0,36819
331,117645,121900,1219,Long Beach City College,Long Beach,CA,90808-1706,2,2,33.833593,-118.135633,0.0,0.0,0.0,0.0,1.0,1.0,0.0,0.0,0.0,,,,,,,,,,,,,,0.1365,0.1075,0.5959,0.0957,0.0016,0.006,1,12061.0,,1556.0,11144.0,7495.0,,0.2137,,,,,,,0.6466,,0.0177,,,,,,,,,,,,,,36819
332,117672,122900,1229,Southern California University of Health Sciences,Whittier,CA,90604,1,4,33.922966,-117.983401,0.0,0.0,0.0,0.0,0.0,0.0,0.0,0.0,0.0,,,,,,,,,,,,,,0.2622,0.0793,0.3537,0.1159,0.0,0.0122,1,,,,,7596.0,,,,,,,,,,,0.3192,,,,,,,,,807.0,,,1829352.0,1921889.0,36819
333,117690,122400,1224,Los Angeles Harbor College,Wilmington,CA,90744-2397,2,2,33.785825,-118.283549,0.0,0.0,0.0,0.0,0.0,1.0,0.0,0.0,0.0,,,,,,,,,,,,,,0.1158,0.0916,0.6122,0.0999,0.0012,0.0046,1,18393.0,,1238.0,8570.0,10492.0,,0.256,,,,,,,0.6785,,0.0048,,,,,,,,,,,,,,36819
334,117706,122600,1226,Los Angeles Pierce College,Woodland Hills,CA,91371-0002,2,2,34.183949,-118.575071,0.0,0.0,0.0,0.0,0.0,1.0,0.0,0.0,0.0,,,,,,,,,,,,,,0.2808,0.0428,0.4948,0.0931,0.001,0.0014,1,18941.0,,1238.0,8570.0,10386.0,,0.3143,,,,,,,0.7287,,0.0296,,,,,,,,,,,,,,36819
335,117715,704700,7047,Los Angeles Southwest College,Los Angeles,CA,90047-4899,2,2,33.929586,-118.304674,0.0,1.0,0.0,0.0,0.0,1.0,0.0,0.0,0.0,,,,,,,,,,,,,,0.0576,0.3681,0.4682,0.0322,0.0017,0.0019,1,16826.0,,1238.0,8570.0,9953.0,,0.2177,,,,,,,0.519,,0.0206,,,,,,,,,,,,,,36819
336,117724,122700,1227,Los Angeles Trade Technical College,Los Angeles,CA,90015-4181,1,2,34.031907,-118.269447,0.0,0.0,0.0,0.0,0.0,1.0,0.0,0.0,0.0,,,,,,,,,,,,,,0.0807,0.1374,0.6714,0.0454,0.0019,0.001,1,16343.0,,1238.0,8570.0,10644.0,,0.2622,,,,,,,0.5588,,0.0185,,,,,,,,,,,,,,36819
337,117733,122800,1228,Los Angeles Valley College,Valley Glen,CA,91401-4096,2,2,34.175165,-118.421734,0.0,0.0,0.0,0.0,0.0,1.0,0.0,0.0,0.0,,,,,,,,,,,,,,0.2915,0.0499,0.5089,0.07,0.0016,0.0018,1,17215.0,,1238.0,8570.0,10192.0,,0.2563,,,,,,,0.7105,,0.0143,,,,,,,,,,,,,,36819
